[
	{
		"model": "twilio_mgr.location",
		"pk": 1,
		"fields": {
			"name": "Adelphi University",
			"lon": -73.6518733,
			"lat": 40.7187717,
			"type": "School",
			"address": "1 South Ave, UC Lobby, Garden City, NY 11530"
		}
	},
	{
		"model": "twilio_mgr.location",
		"pk": 2,
		"fields": {
			"name": "AIDS Healthcare Foundation",
			"lon": -73.9820483,
			"lat": 40.6860777,
			"type": "Pharmacy",
			"address": "475 Atlantic Ave, Brooklyn, NY 11217"
		}
	},
	{
		"model": "twilio_mgr.location",
		"pk": 3,
		"fields": {
			"name": "Albany County Sheriff",
			"lon": -73.9543788,
			"lat": 42.5771018,
			"type": "Police",
			"address": "58 Verda Ave, Clarksville, NY 12041"
		}
	},
	{
		"model": "twilio_mgr.location",
		"pk": 4,
		"fields": {
			"name": "Albany County Sheriff / RCS Community Library",
			"lon": -73.7929443,
			"lat": 42.4745337,
			"type": "Police",
			"address": "95 Main St, Ravena, NY 12143"
		}
	},
	{
		"model": "twilio_mgr.location",
		"pk": 5,
		"fields": {
			"name": "Albany Police Department",
			"lon": -73.7605088,
			"lat": 42.6628091,
			"type": "Police",
			"address": "165 Henry Johnson Blvd, Albany, NY 12210"
		}
	},
	{
		"model": "twilio_mgr.location",
		"pk": 6,
		"fields": {
			"name": "Albany Police Dept South Station",
			"lon": -73.7575989,
			"lat": 42.6424917,
			"type": "Police",
			"address": "126 Arch St, Albany, NY 12202"
		}
	},
	{
		"model": "twilio_mgr.location",
		"pk": 7,
		"fields": {
			"name": "Albany VA Medical Center",
			"lon": -73.7744404,
			"lat": 42.6496127,
			"type": "Hospital",
			"address": "113 Holland Ave, Albany, NY 12208"
		}
	},
	{
		"model": "twilio_mgr.location",
		"pk": 8,
		"fields": {
			"name": "Alberty Drugs",
			"lon": -78.1838369,
			"lat": 42.997426,
			"type": "Pharmacy",
			"address": "81 Main St, Batavia, NY 14020"
		}
	},
	{
		"model": "twilio_mgr.location",
		"pk": 9,
		"fields": {
			"name": "Alden Pharmacy",
			"lon": -78.495883,
			"lat": 42.9000864,
			"type": "Pharmacy",
			"address": "13203 Broadway, Alden, NY 14004"
		}
	},
	{
		"model": "twilio_mgr.location",
		"pk": 10,
		"fields": {
			"name": "Alden Town Hall",
			"lon": -78.547854,
			"lat": 42.939665,
			"type": "Government",
			"address": "3311 Wende Rd, Alden, NY 14004"
		}
	},
	{
		"model": "twilio_mgr.location",
		"pk": 11,
		"fields": {
			"name": "Alfred State University Police",
			"lon": -77.7925638,
			"lat": 42.2558768,
			"type": "Police",
			"address": "4 Elm St, Alfred, NY 14802"
		}
	},
	{
		"model": "twilio_mgr.location",
		"pk": 12,
		"fields": {
			"name": "Allegany County Sheriff'S Office",
			"lon": -78.0146824,
			"lat": 42.211879,
			"type": "Police",
			"address": "4884 NY-19, Belmont, NY 14813"
		}
	},
	{
		"model": "twilio_mgr.location",
		"pk": 13,
		"fields": {
			"name": "Allegany Sheriff / Bolivar Vol Fire Department",
			"lon": -78.1679811,
			"lat": 42.063984,
			"type": "Police",
			"address": "460 Main St, Bolivar, NY 14715"
		}
	},
	{
		"model": "twilio_mgr.location",
		"pk": 14,
		"fields": {
			"name": "Allure Specialty Pharmacy",
			"lon": -73.8584283,
			"lat": 40.8995457,
			"type": "Pharmacy",
			"address": "4377 Bronx Blvd, Bronx, NY 10466"
		}
	},
	{
		"model": "twilio_mgr.location",
		"pk": 15,
		"fields": {
			"name": "AMI Pharmacy",
			"lon": -73.9377334,
			"lat": 40.8477306,
			"type": "Pharmacy",
			"address": "4180 Broadway, New York, NY 10033"
		}
	},
	{
		"model": "twilio_mgr.location",
		"pk": 16,
		"fields": {
			"name": "Amityville Police Department",
			"lon": -73.4187117,
			"lat": 40.6777996,
			"type": "Police",
			"address": "21 Ireland Pl, Amityville, NY 11701"
		}
	},
	{
		"model": "twilio_mgr.location",
		"pk": 17,
		"fields": {
			"name": "Amsterdam Police Department",
			"lon": -74.192485,
			"lat": 42.939807,
			"type": "Police",
			"address": "1 Guy Park Ave, Amsterdam, NY 12010"
		}
	},
	{
		"model": "twilio_mgr.location",
		"pk": 18,
		"fields": {
			"name": "Ardsley Police Department",
			"lon": -73.8460874,
			"lat": 41.0115632,
			"type": "Police",
			"address": "507 Ashford Ave, Ardsley, NY 10502"
		}
	},
	{
		"model": "twilio_mgr.location",
		"pk": 19,
		"fields": {
			"name": "Attica Pharmacy",
			"lon": -78.2840631,
			"lat": 42.8643721,
			"type": "Pharmacy",
			"address": "2 Market St, Attica, NY 14011"
		}
	},
	{
		"model": "twilio_mgr.location",
		"pk": 20,
		"fields": {
			"name": "Attica Police Department",
			"lon": -78.2799992,
			"lat": 42.8628789,
			"type": "Police",
			"address": "43 Exchange Street Rd, Attica, NY 14011"
		}
	},
	{
		"model": "twilio_mgr.location",
		"pk": 21,
		"fields": {
			"name": "Auburn Police Department HQ",
			"lon": -76.565439,
			"lat": 42.9334596,
			"type": "Police",
			"address": "46 North St, Auburn, NY 13021"
		}
	},
	{
		"model": "twilio_mgr.location",
		"pk": 22,
		"fields": {
			"name": "Baldwinsville Police Department",
			"lon": -76.3334824,
			"lat": 43.1588358,
			"type": "Police",
			"address": "16 W Genesee St, Baldwinsville, NY 13027"
		}
	},
	{
		"model": "twilio_mgr.location",
		"pk": 23,
		"fields": {
			"name": "Bardonia Pharmacy",
			"lon": -73.9966173,
			"lat": 41.1088185,
			"type": "Pharmacy",
			"address": "301 NY-304 #4, Bardonia, NY 10954"
		}
	},
	{
		"model": "twilio_mgr.location",
		"pk": 24,
		"fields": {
			"name": "Bartles Pharmacy",
			"lon": -75.597781,
			"lat": 42.442775,
			"type": "Pharmacy",
			"address": "10 Lafayette Park, Oxford, NY 13830"
		}
	},
	{
		"model": "twilio_mgr.location",
		"pk": 25,
		"fields": {
			"name": "Batavia Police Department",
			"lon": -78.1875696,
			"lat": 42.9986125,
			"type": "Police",
			"address": "10 W Main St, Batavia, NY 14020"
		}
	},
	{
		"model": "twilio_mgr.location",
		"pk": 26,
		"fields": {
			"name": "Bayside Pharmacy",
			"lon": -73.7552226,
			"lat": 40.7492677,
			"type": "Pharmacy",
			"address": "221-36 Horace Harding Expy, Oakland Gardens, NY 11364"
		}
	},
	{
		"model": "twilio_mgr.location",
		"pk": 27,
		"fields": {
			"name": "Beacon City Police Dept",
			"lon": -73.9784575,
			"lat": 41.5080215,
			"type": "Police",
			"address": "1 Municipal Plaza, Beacon, NY 12508"
		}
	},
	{
		"model": "twilio_mgr.location",
		"pk": 28,
		"fields": {
			"name": "Beavers Pharmacy",
			"lon": -77.6053887,
			"lat": 42.2702945,
			"type": "Pharmacy",
			"address": "7 Main St, Canisteo, NY 14823"
		}
	},
	{
		"model": "twilio_mgr.location",
		"pk": 29,
		"fields": {
			"name": "Bedford Police Department",
			"lon": -73.6570699,
			"lat": 41.1738025,
			"type": "Police",
			"address": "307 Bedford-Banksville Rd, Bedford, NY 10506"
		}
	},
	{
		"model": "twilio_mgr.location",
		"pk": 30,
		"fields": {
			"name": "Bethlehem Town Park",
			"lon": -73.825874,
			"lat": 42.580348,
			"type": "Police",
			"address": "249 Elm Ave, Delmar, NY 12054"
		}
	},
	{
		"model": "twilio_mgr.location",
		"pk": 31,
		"fields": {
			"name": "Birdsall Fagan Police Court Facility",
			"lon": -73.8642351,
			"lat": 41.1585795,
			"type": "Police",
			"address": "88 Spring St, Ossining, NY 10562"
		}
	},
	{
		"model": "twilio_mgr.location",
		"pk": 32,
		"fields": {
			"name": "Black Drugs",
			"lon": -75.2177089,
			"lat": 43.0980591,
			"type": "Pharmacy",
			"address": "704 Bleecker St, Utica, NY 13501"
		}
	},
	{
		"model": "twilio_mgr.location",
		"pk": 33,
		"fields": {
			"name": "Black Rock Pharmacy",
			"lon": -78.8983242,
			"lat": 42.9410115,
			"type": "Pharmacy",
			"address": "431 Tonawanda St, Buffalo, NY 14207"
		}
	},
	{
		"model": "twilio_mgr.location",
		"pk": 34,
		"fields": {
			"name": "Blooming Grove Pharmacy",
			"lon": -74.1732741,
			"lat": 41.3795467,
			"type": "Pharmacy",
			"address": "1200 NY-208, Monroe, NY 10950"
		}
	},
	{
		"model": "twilio_mgr.location",
		"pk": 35,
		"fields": {
			"name": "Bonaparte Pharmacy",
			"lon": -75.316232,
			"lat": 44.148427,
			"type": "Pharmacy",
			"address": "8210 Main St, Harrisville, NY 13648"
		}
	},
	{
		"model": "twilio_mgr.location",
		"pk": 36,
		"fields": {
			"name": "Boonville Police Dept",
			"lon": -75.2303612,
			"lat": 43.4244517,
			"type": "Police",
			"address": "13149 NY-12, Boonville, NY 13309"
		}
	},
	{
		"model": "twilio_mgr.location",
		"pk": 37,
		"fields": {
			"name": "Brant Town Hall",
			"lon": -79.0155463,
			"lat": 42.5891996,
			"type": "Government",
			"address": "1272 Brant North Collins Rd, Brant, NY 14027"
		}
	},
	{
		"model": "twilio_mgr.location",
		"pk": 38,
		"fields": {
			"name": "Briarcliff Manor Police Department",
			"lon": -73.8286274,
			"lat": 41.1489102,
			"type": "Police",
			"address": "1111 Pleasantville Rd, Briarcliff Manor, NY 10510"
		}
	},
	{
		"model": "twilio_mgr.location",
		"pk": 39,
		"fields": {
			"name": "Brighton Police Department",
			"lon": -77.575573,
			"lat": 43.127059,
			"type": "Police",
			"address": "2300 Elmwood Ave, Rochester, NY 14618"
		}
	},
	{
		"model": "twilio_mgr.location",
		"pk": 40,
		"fields": {
			"name": "Bristol Town Hall",
			"lon": -77.3921474,
			"lat": 42.8092921,
			"type": "Government",
			"address": "6740 Co Rd 32, Canandaigua, NY 14424"
		}
	},
	{
		"model": "twilio_mgr.location",
		"pk": 41,
		"fields": {
			"name": "Brockport Police Department",
			"lon": -77.9391247,
			"lat": 43.2157839,
			"type": "Police",
			"address": "1 Clinton St, Brockport, NY 14420"
		}
	},
	{
		"model": "twilio_mgr.location",
		"pk": 42,
		"fields": {
			"name": "Bronxville Police Department",
			"lon": -73.8314762,
			"lat": 40.9355278,
			"type": "Police",
			"address": "200 Pondfield Rd, Bronxville, NY 10708"
		}
	},
	{
		"model": "twilio_mgr.location",
		"pk": 43,
		"fields": {
			"name": "Broome Co Sheriff'S Office",
			"lon": -75.911315,
			"lat": 42.0962182,
			"type": "Police",
			"address": "44 Hawley St, Binghamton, NY 13901"
		}
	},
	{
		"model": "twilio_mgr.location",
		"pk": 44,
		"fields": {
			"name": "Broome County Office Building",
			"lon": -75.9107117,
			"lat": 42.096589,
			"type": "Government",
			"address": "60 Hawley St, Binghamton, NY 13901"
		}
	},
	{
		"model": "twilio_mgr.location",
		"pk": 45,
		"fields": {
			"name": "Broome County Sheriff's Office",
			"lon": -75.916673,
			"lat": 42.1324788,
			"type": "Police",
			"address": "155 Lt Vanwinkle Dr, Binghamton, NY 13905"
		}
	},
	{
		"model": "twilio_mgr.location",
		"pk": 46,
		"fields": {
			"name": "Buchanan Village Police Department",
			"lon": -73.9394989,
			"lat": 41.2615339,
			"type": "Police",
			"address": "236 Tate Ave, Buchanan, NY 10511"
		}
	},
	{
		"model": "twilio_mgr.location",
		"pk": 47,
		"fields": {
			"name": "Buffalo Police Department (A District)",
			"lon": -78.824151,
			"lat": 42.8484182,
			"type": "Police",
			"address": "1847 South Park Ave, Buffalo, NY 14220"
		}
	},
	{
		"model": "twilio_mgr.location",
		"pk": 48,
		"fields": {
			"name": "Buffalo Police Department (B District)",
			"lon": -78.8716592,
			"lat": 42.8930307,
			"type": "Police",
			"address": "695 Main St, Buffalo, NY 14203"
		}
	},
	{
		"model": "twilio_mgr.location",
		"pk": 49,
		"fields": {
			"name": "Buffalo Police Department (C District)",
			"lon": -78.8385865,
			"lat": 42.9143835,
			"type": "Police",
			"address": "693 E Ferry St, Buffalo, NY 14211"
		}
	},
	{
		"model": "twilio_mgr.location",
		"pk": 50,
		"fields": {
			"name": "Buffalo Police Department (D District)",
			"lon": -78.8838201,
			"lat": 42.9473943,
			"type": "Police",
			"address": "669 Hertel Ave, Buffalo, NY 14207"
		}
	},
	{
		"model": "twilio_mgr.location",
		"pk": 51,
		"fields": {
			"name": "Buffalo Police Department (E District)",
			"lon": -78.8133032,
			"lat": 42.9303177,
			"type": "Police",
			"address": "2767 Bailey Ave, Buffalo, NY 14215"
		}
	},
	{
		"model": "twilio_mgr.location",
		"pk": 52,
		"fields": {
			"name": "C O Bigelow Chemists",
			"lon": -73.9990431,
			"lat": 40.7339088,
			"type": "Pharmacy",
			"address": "414 6th Ave, New York, NY 10011"
		}
	},
	{
		"model": "twilio_mgr.location",
		"pk": 53,
		"fields": {
			"name": "C&J's Northside Pharmacy",
			"lon": -76.1250215,
			"lat": 43.0821232,
			"type": "Pharmacy",
			"address": "2301 Teall Ave, Syracuse, NY 13206"
		}
	},
	{
		"model": "twilio_mgr.location",
		"pk": 54,
		"fields": {
			"name": "Cairo Police Department",
			"lon": -74.002772,
			"lat": 42.2980596,
			"type": "Police",
			"address": "123 Angelo Canna Park, Cairo, NY 12413"
		}
	},
	{
		"model": "twilio_mgr.location",
		"pk": 55,
		"fields": {
			"name": "Cambridge Village Police Department",
			"lon": -73.3774629,
			"lat": 43.0372356,
			"type": "Police",
			"address": "56 N Park St, Cambridge, NY 12816"
		}
	},
	{
		"model": "twilio_mgr.location",
		"pk": 56,
		"fields": {
			"name": "Camden Police Department",
			"lon": -75.7520816,
			"lat": 43.341081,
			"type": "Police",
			"address": "30 Fayette St, Camden, NY 13316"
		}
	},
	{
		"model": "twilio_mgr.location",
		"pk": 57,
		"fields": {
			"name": "Canandaigua Police Department",
			"lon": -77.2799567,
			"lat": 42.8881924,
			"type": "Police",
			"address": "21 Ontario St, Canandaigua, NY 14424"
		}
	},
	{
		"model": "twilio_mgr.location",
		"pk": 58,
		"fields": {
			"name": "Canisius College Bosch Hall",
			"lon": -78.8528401,
			"lat": 42.9272065,
			"type": "School",
			"address": "2001 Main St, Buffalo, NY 14208"
		}
	},
	{
		"model": "twilio_mgr.location",
		"pk": 59,
		"fields": {
			"name": "Canisteo Village Hall",
			"lon": -77.6043298,
			"lat": 42.269949,
			"type": "Police",
			"address": "8 Green St, Canisteo, NY 14823"
		}
	},
	{
		"model": "twilio_mgr.location",
		"pk": 60,
		"fields": {
			"name": "Carthage Police Department / Kinney Pharmacy",
			"lon": -75.6087847,
			"lat": 43.9793327,
			"type": "Police",
			"address": "401 State St, Carthage, NY 13619"
		}
	},
	{
		"model": "twilio_mgr.location",
		"pk": 61,
		"fields": {
			"name": "Castle Hill Community Pharmacy",
			"lon": -73.8483009,
			"lat": 40.82137,
			"type": "Pharmacy",
			"address": "706 Castle Hill Ave, Bronx, NY 10473"
		}
	},
	{
		"model": "twilio_mgr.location",
		"pk": 62,
		"fields": {
			"name": "Castle Topp Pharmacy",
			"lon": -73.8518255,
			"lat": 40.835398,
			"type": "Pharmacy",
			"address": "1370 Castle Hill Ave, Bronx, NY 10462"
		}
	},
	{
		"model": "twilio_mgr.location",
		"pk": 63,
		"fields": {
			"name": "Cattaraugus County Sheriff / Corner Drug Store",
			"lon": -78.8681434,
			"lat": 42.3295847,
			"type": "Police",
			"address": "1 Washington St, Cattaraugus, NY 14719"
		}
	},
	{
		"model": "twilio_mgr.location",
		"pk": 64,
		"fields": {
			"name": "Cattaraugus County Sheriff's Department",
			"lon": -78.4500609,
			"lat": 42.08635,
			"type": "Police",
			"address": "1 Leo Moss Dr, Olean, NY 14760"
		}
	},
	{
		"model": "twilio_mgr.location",
		"pk": 65,
		"fields": {
			"name": "Cayuga County Law Enforcement",
			"lon": -76.5445912,
			"lat": 42.9787107,
			"type": "Police",
			"address": "7445 County House Rd, Auburn, NY 13021"
		}
	},
	{
		"model": "twilio_mgr.location",
		"pk": 66,
		"fields": {
			"name": "Cayuga Heights Police Department",
			"lon": -76.4790368,
			"lat": 42.4697074,
			"type": "Police",
			"address": "836 Hanshaw Rd, Ithaca, NY 14850"
		}
	},
	{
		"model": "twilio_mgr.location",
		"pk": 67,
		"fields": {
			"name": "Champlain Valley Physicians Hospital",
			"lon": -73.4676023,
			"lat": 44.6984436,
			"type": "Hospital",
			"address": "214 Cornelia St, Plattsburgh, NY 12901"
		}
	},
	{
		"model": "twilio_mgr.location",
		"pk": 68,
		"fields": {
			"name": "Chautauqua County Sheriff's Office",
			"lon": -79.503649,
			"lat": 42.2544692,
			"type": "Police",
			"address": "15 E Chautauqua St, Mayville, NY 14757"
		}
	},
	{
		"model": "twilio_mgr.location",
		"pk": 69,
		"fields": {
			"name": "Chenango County Sheriff / Greene Fire Department",
			"lon": -75.768701,
			"lat": 42.3337335,
			"type": "Police",
			"address": "N Canal St, Greene, NY 13778"
		}
	},
	{
		"model": "twilio_mgr.location",
		"pk": 70,
		"fields": {
			"name": "Chittenango Police",
			"lon": -75.8665237,
			"lat": 43.0451423,
			"type": "Police",
			"address": "222 Genesee St, Chittenango, NY 13037"
		}
	},
	{
		"model": "twilio_mgr.location",
		"pk": 71,
		"fields": {
			"name": "City of Elmira Police Department",
			"lon": -76.8030917,
			"lat": 42.0915825,
			"type": "Police",
			"address": "317 E Church St, Elmira, NY 14901"
		}
	},
	{
		"model": "twilio_mgr.location",
		"pk": 72,
		"fields": {
			"name": "City of Hudson New York",
			"lon": -73.7879808,
			"lat": 42.2503205,
			"type": "Government",
			"address": "427 Warren St, Hudson, NY 12534"
		}
	},
	{
		"model": "twilio_mgr.location",
		"pk": 73,
		"fields": {
			"name": "City of Newburgh Police Department",
			"lon": -74.0091428,
			"lat": 41.4990973,
			"type": "Police",
			"address": "55 Broadway, Newburgh, NY 12550"
		}
	},
	{
		"model": "twilio_mgr.location",
		"pk": 74,
		"fields": {
			"name": "City of Olean Police Department",
			"lon": -78.4292745,
			"lat": 42.0778266,
			"type": "Police",
			"address": "101 E State St, Olean, NY 14760"
		}
	},
	{
		"model": "twilio_mgr.location",
		"pk": 75,
		"fields": {
			"name": "City of Peekskill Police Department",
			"lon": -73.9223596,
			"lat": 41.2906825,
			"type": "Police",
			"address": "2 Nelson Ave, Peekskill, NY 10566"
		}
	},
	{
		"model": "twilio_mgr.location",
		"pk": 76,
		"fields": {
			"name": "City of Plattsburgh Police Department",
			"lon": -73.4544005,
			"lat": 44.6923204,
			"type": "Police",
			"address": "45 Pine St, Plattsburgh, NY 12901"
		}
	},
	{
		"model": "twilio_mgr.location",
		"pk": 77,
		"fields": {
			"name": "City of Salamanca Police Department",
			"lon": -78.708431,
			"lat": 42.157576,
			"type": "Police",
			"address": "1 Barrett Dr, Salamanca, NY 14779"
		}
	},
	{
		"model": "twilio_mgr.location",
		"pk": 78,
		"fields": {
			"name": "Clarence Substation",
			"lon": -78.635841,
			"lat": 43.015322,
			"type": "Government",
			"address": "6185 Goodrich Rd, Clarence Center, NY 14032"
		}
	},
	{
		"model": "twilio_mgr.location",
		"pk": 79,
		"fields": {
			"name": "Clark Mills Police Department",
			"lon": -75.3768915,
			"lat": 43.0913506,
			"type": "Police",
			"address": "2 New St, Clark Mills, NY 13321"
		}
	},
	{
		"model": "twilio_mgr.location",
		"pk": 80,
		"fields": {
			"name": "Claxton Hepburn Medical Center",
			"lon": -75.499781,
			"lat": 44.691587,
			"type": "Hospital",
			"address": "214 King Street, Ogdensburg, NY 13669"
		}
	},
	{
		"model": "twilio_mgr.location",
		"pk": 81,
		"fields": {
			"name": "Clifton Springs Hospital & Clinic",
			"lon": -77.1366832,
			"lat": 42.9601279,
			"type": "Hospital",
			"address": "2 Coulter Rd, Clifton Springs, NY 14432"
		}
	},
	{
		"model": "twilio_mgr.location",
		"pk": 82,
		"fields": {
			"name": "Cobleskill Police Department",
			"lon": -74.4802672,
			"lat": 42.6689951,
			"type": "Police",
			"address": "378 Mineral Springs Rd, Cobleskill, NY 12043"
		}
	},
	{
		"model": "twilio_mgr.location",
		"pk": 83,
		"fields": {
			"name": "Columbia County Sheriff's Office",
			"lon": -73.756781,
			"lat": 42.2495575,
			"type": "Police",
			"address": "85 Industrial Tract, Hudson, NY 12534"
		}
	},
	{
		"model": "twilio_mgr.location",
		"pk": 84,
		"fields": {
			"name": "Columbia University",
			"lon": -73.939063,
			"lat": 40.840458,
			"type": "Police",
			"address": "560 W 168th St, New York, NY 10032"
		}
	},
	{
		"model": "twilio_mgr.location",
		"pk": 85,
		"fields": {
			"name": "Columbia University",
			"lon": -73.9638331,
			"lat": 40.8079932,
			"type": "Police",
			"address": "W 116th St & Broadway, New York, NY 10027"
		}
	},
	{
		"model": "twilio_mgr.location",
		"pk": 86,
		"fields": {
			"name": "Community Care RX",
			"lon": -73.6333155,
			"lat": 40.7035208,
			"type": "Pharmacy",
			"address": "86 Front St, Hempstead, NY 11550"
		}
	},
	{
		"model": "twilio_mgr.location",
		"pk": 87,
		"fields": {
			"name": "Community Memorial Hospital",
			"lon": -75.5431629,
			"lat": 42.81327,
			"type": "Hospital",
			"address": "150 Broad St, Hamilton, NY 13346"
		}
	},
	{
		"model": "twilio_mgr.location",
		"pk": 88,
		"fields": {
			"name": "Cornell University Police Department",
			"lon": -76.4806043,
			"lat": 42.4459844,
			"type": "Police",
			"address": "117 Statler Dr, Ithaca, NY 14853"
		}
	},
	{
		"model": "twilio_mgr.location",
		"pk": 89,
		"fields": {
			"name": "Cornerstone Drug & Gift",
			"lon": -73.3714846,
			"lat": 44.9832262,
			"type": "Pharmacy",
			"address": "72 Champlain St, Rouses Point, NY 12979"
		}
	},
	{
		"model": "twilio_mgr.location",
		"pk": 90,
		"fields": {
			"name": "Corning Hospital",
			"lon": -76.9697741,
			"lat": 42.1359226,
			"type": "Hospital",
			"address": "1 Guthrie Drive, Corning, NY 14830"
		}
	},
	{
		"model": "twilio_mgr.location",
		"pk": 91,
		"fields": {
			"name": "Cornwall Town Police Department",
			"lon": -74.0283899,
			"lat": 41.4389873,
			"type": "Police",
			"address": "183 Main St, Cornwall, NY 12518"
		}
	},
	{
		"model": "twilio_mgr.location",
		"pk": 92,
		"fields": {
			"name": "Cortland County Sheriff's Department",
			"lon": -76.1759286,
			"lat": 42.5984884,
			"type": "Police",
			"address": "54 Greenbush St, Cortland, NY 13045"
		}
	},
	{
		"model": "twilio_mgr.location",
		"pk": 93,
		"fields": {
			"name": "Cortland Police Department",
			"lon": -76.1784192,
			"lat": 42.5990567,
			"type": "Police",
			"address": "25 Court St, Cortland, NY 13045"
		}
	},
	{
		"model": "twilio_mgr.location",
		"pk": 94,
		"fields": {
			"name": "Cortlandt Manor Police Department",
			"lon": -73.90544,
			"lat": 41.3102123,
			"type": "Police",
			"address": "1 Heady St, Cortlandt, NY 10567"
		}
	},
	{
		"model": "twilio_mgr.location",
		"pk": 95,
		"fields": {
			"name": "County Emergency Operations Center",
			"lon": -74.405467,
			"lat": 42.682246,
			"type": "Police",
			"address": "2783 NY-7, Cobleskill, NY 12043"
		}
	},
	{
		"model": "twilio_mgr.location",
		"pk": 96,
		"fields": {
			"name": "Coxsackie Police Department",
			"lon": -73.8273641,
			"lat": 42.3627644,
			"type": "Police",
			"address": "119 Mansion St, Coxsackie, NY 12051"
		}
	},
	{
		"model": "twilio_mgr.location",
		"pk": 97,
		"fields": {
			"name": "Crawford Town Police",
			"lon": -74.3047629,
			"lat": 41.6028803,
			"type": "Police",
			"address": "121 NY-302, Pine Bush, NY 12566"
		}
	},
	{
		"model": "twilio_mgr.location",
		"pk": 98,
		"fields": {
			"name": "Croton-on-Hudson Police Department",
			"lon": -73.8877096,
			"lat": 41.2083157,
			"type": "Police",
			"address": "1 Van Wyck St, Croton-On-Hudson, NY 10520"
		}
	},
	{
		"model": "twilio_mgr.location",
		"pk": 99,
		"fields": {
			"name": "Cuba Police Department",
			"lon": -78.2797593,
			"lat": 42.2182905,
			"type": "Police",
			"address": "15 Water St, Cuba, NY 14727"
		}
	},
	{
		"model": "twilio_mgr.location",
		"pk": 100,
		"fields": {
			"name": "CVS Pharmacy",
			"lon": -77.5048453,
			"lat": 42.7891059,
			"type": "Pharmacy",
			"address": "1 Honeoye Cmns #15, Honeoye, NY 14471"
		}
	},
	{
		"model": "twilio_mgr.location",
		"pk": 101,
		"fields": {
			"name": "CVS Pharmacy",
			"lon": -73.8538271,
			"lat": 40.7265604,
			"type": "Pharmacy",
			"address": "100-02 Queens Blvd, Forest Hills, NY 11375"
		}
	},
	{
		"model": "twilio_mgr.location",
		"pk": 102,
		"fields": {
			"name": "CVS Pharmacy",
			"lon": -73.6877412,
			"lat": 42.9025714,
			"type": "Pharmacy",
			"address": "12 S Central Ave, Mechanicville, NY 12118"
		}
	},
	{
		"model": "twilio_mgr.location",
		"pk": 103,
		"fields": {
			"name": "CVS Pharmacy",
			"lon": -73.9343821,
			"lat": 41.2705412,
			"type": "Pharmacy",
			"address": "12 Welcher Ave, Peekskill, NY 10566"
		}
	},
	{
		"model": "twilio_mgr.location",
		"pk": 104,
		"fields": {
			"name": "CVS Pharmacy",
			"lon": -75.8946945,
			"lat": 42.1585519,
			"type": "Pharmacy",
			"address": "1276 Front St, Binghamton, NY 13901"
		}
	},
	{
		"model": "twilio_mgr.location",
		"pk": 105,
		"fields": {
			"name": "CVS Pharmacy",
			"lon": -74.0864428,
			"lat": 40.5953047,
			"type": "Pharmacy",
			"address": "1361 Hylan Blvd, Staten Island, NY 10305"
		}
	},
	{
		"model": "twilio_mgr.location",
		"pk": 106,
		"fields": {
			"name": "CVS Pharmacy",
			"lon": -73.9579604,
			"lat": 40.7689131,
			"type": "Pharmacy",
			"address": "1396 2nd Ave, New York, NY 10021"
		}
	},
	{
		"model": "twilio_mgr.location",
		"pk": 107,
		"fields": {
			"name": "CVS Pharmacy",
			"lon": -73.9755335,
			"lat": 40.7508121,
			"type": "Pharmacy",
			"address": "150 E 42nd St, New York, NY 10017"
		}
	},
	{
		"model": "twilio_mgr.location",
		"pk": 108,
		"fields": {
			"name": "CVS Pharmacy",
			"lon": -73.8949214,
			"lat": 41.2958284,
			"type": "Pharmacy",
			"address": "1827 Main St, Peekskill, NY 10566"
		}
	},
	{
		"model": "twilio_mgr.location",
		"pk": 109,
		"fields": {
			"name": "CVS Pharmacy",
			"lon": -79.2385069,
			"lat": 42.0936055,
			"type": "Pharmacy",
			"address": "19 S Main St, Jamestown, NY 14701"
		}
	},
	{
		"model": "twilio_mgr.location",
		"pk": 110,
		"fields": {
			"name": "CVS Pharmacy",
			"lon": -73.853089,
			"lat": 40.852999,
			"type": "Pharmacy",
			"address": "1916 Williamsbridge Rd, Bronx, NY 10461"
		}
	},
	{
		"model": "twilio_mgr.location",
		"pk": 111,
		"fields": {
			"name": "CVS Pharmacy",
			"lon": -74.1287262,
			"lat": 40.6128786,
			"type": "Pharmacy",
			"address": "1933 Victory Blvd, Staten Island, NY 10314"
		}
	},
	{
		"model": "twilio_mgr.location",
		"pk": 112,
		"fields": {
			"name": "CVS Pharmacy",
			"lon": -73.3313518,
			"lat": 40.763398,
			"type": "Pharmacy",
			"address": "1944 Deer Park Rd, Deer Park, NY 11729"
		}
	},
	{
		"model": "twilio_mgr.location",
		"pk": 113,
		"fields": {
			"name": "CVS Pharmacy",
			"lon": -73.4085381,
			"lat": 40.8279227,
			"type": "Pharmacy",
			"address": "2 E Jericho Turnpike, Huntington Station, NY 11746"
		}
	},
	{
		"model": "twilio_mgr.location",
		"pk": 114,
		"fields": {
			"name": "CVS Pharmacy",
			"lon": -73.4225274,
			"lat": 40.6720523,
			"type": "Pharmacy",
			"address": "20 Merrick Rd, Amityville, NY 11701"
		}
	},
	{
		"model": "twilio_mgr.location",
		"pk": 115,
		"fields": {
			"name": "CVS Pharmacy",
			"lon": -73.6222997,
			"lat": 40.8619968,
			"type": "Pharmacy",
			"address": "201 Glen St, Glen Cove, NY 11542"
		}
	},
	{
		"model": "twilio_mgr.location",
		"pk": 116,
		"fields": {
			"name": "CVS Pharmacy",
			"lon": -73.5291296,
			"lat": 40.7625553,
			"type": "Pharmacy",
			"address": "202 W Old Country Rd, Hicksville, NY 11801"
		}
	},
	{
		"model": "twilio_mgr.location",
		"pk": 117,
		"fields": {
			"name": "CVS Pharmacy",
			"lon": -73.769882,
			"lat": 40.759744,
			"type": "Pharmacy",
			"address": "212-20 Northern Blvd, Flushing, NY 11361"
		}
	},
	{
		"model": "twilio_mgr.location",
		"pk": 118,
		"fields": {
			"name": "CVS Pharmacy",
			"lon": -73.8311827,
			"lat": 40.9762896,
			"type": "Pharmacy",
			"address": "2290 Central Park Ave, Yonkers, NY 10710"
		}
	},
	{
		"model": "twilio_mgr.location",
		"pk": 119,
		"fields": {
			"name": "CVS Pharmacy",
			"lon": -73.9824844,
			"lat": 40.7668312,
			"type": "Pharmacy",
			"address": "241 W 57th St, New York, NY 10019"
		}
	},
	{
		"model": "twilio_mgr.location",
		"pk": 120,
		"fields": {
			"name": "CVS Pharmacy",
			"lon": -73.9825438,
			"lat": 40.7319489,
			"type": "Pharmacy",
			"address": "253 1st Avenue, New York, NY 10003"
		}
	},
	{
		"model": "twilio_mgr.location",
		"pk": 121,
		"fields": {
			"name": "CVS Pharmacy",
			"lon": -73.8219695,
			"lat": 42.6255994,
			"type": "Pharmacy",
			"address": "260 Delaware Ave, Delmar, NY 12054"
		}
	},
	{
		"model": "twilio_mgr.location",
		"pk": 122,
		"fields": {
			"name": "CVS Pharmacy",
			"lon": -73.988327,
			"lat": 41.1623158,
			"type": "Pharmacy",
			"address": "280 N Main St, New City, NY 10956"
		}
	},
	{
		"model": "twilio_mgr.location",
		"pk": 123,
		"fields": {
			"name": "CVS Pharmacy",
			"lon": -73.945237,
			"lat": 40.6162551,
			"type": "Pharmacy",
			"address": "2925 Kings Hwy, Brooklyn, NY 11229"
		}
	},
	{
		"model": "twilio_mgr.location",
		"pk": 124,
		"fields": {
			"name": "CVS Pharmacy",
			"lon": -73.6831683,
			"lat": 41.2547599,
			"type": "Pharmacy",
			"address": "294 Katonah Ave, Katonah, NY 10536"
		}
	},
	{
		"model": "twilio_mgr.location",
		"pk": 125,
		"fields": {
			"name": "CVS Pharmacy",
			"lon": -73.7754566,
			"lat": 40.91336,
			"type": "Pharmacy",
			"address": "309 Main St, New Rochelle, NY 10801"
		}
	},
	{
		"model": "twilio_mgr.location",
		"pk": 126,
		"fields": {
			"name": "CVS Pharmacy",
			"lon": -73.910205,
			"lat": 40.776013,
			"type": "Pharmacy",
			"address": "31-01 Ditmars Blvd, Astoria, NY 11105"
		}
	},
	{
		"model": "twilio_mgr.location",
		"pk": 127,
		"fields": {
			"name": "CVS Pharmacy",
			"lon": -73.7631385,
			"lat": 41.0253201,
			"type": "Pharmacy",
			"address": "325 Mamaroneck Ave, White Plains, NY 10605"
		}
	},
	{
		"model": "twilio_mgr.location",
		"pk": 128,
		"fields": {
			"name": "CVS Pharmacy",
			"lon": -73.78866,
			"lat": 43.0785019,
			"type": "Pharmacy",
			"address": "34 Congress St, Saratoga Springs, NY 12866"
		}
	},
	{
		"model": "twilio_mgr.location",
		"pk": 129,
		"fields": {
			"name": "CVS Pharmacy",
			"lon": -73.8206535,
			"lat": 40.8256704,
			"type": "Pharmacy",
			"address": "3775 E Tremont Ave, Bronx, NY 10465"
		}
	},
	{
		"model": "twilio_mgr.location",
		"pk": 130,
		"fields": {
			"name": "CVS Pharmacy",
			"lon": -73.5936878,
			"lat": 40.6437379,
			"type": "Pharmacy",
			"address": "403 Atlantic Ave, Freeport, NY 11520"
		}
	},
	{
		"model": "twilio_mgr.location",
		"pk": 131,
		"fields": {
			"name": "CVS Pharmacy",
			"lon": -73.930517,
			"lat": 41.7759176,
			"type": "Pharmacy",
			"address": "4170 Albany Post Rd, Hyde Park, NY 12538"
		}
	},
	{
		"model": "twilio_mgr.location",
		"pk": 132,
		"fields": {
			"name": "CVS Pharmacy",
			"lon": -73.7083871,
			"lat": 40.6693276,
			"type": "Pharmacy",
			"address": "44 N Central Ave, Valley Stream, NY 11580"
		}
	},
	{
		"model": "twilio_mgr.location",
		"pk": 133,
		"fields": {
			"name": "CVS Pharmacy",
			"lon": -73.3083229,
			"lat": 40.6973936,
			"type": "Pharmacy",
			"address": "499 Montauk Hwy, West Islip, NY 11795"
		}
	},
	{
		"model": "twilio_mgr.location",
		"pk": 134,
		"fields": {
			"name": "CVS Pharmacy",
			"lon": -74.1296052,
			"lat": 41.113736,
			"type": "Pharmacy",
			"address": "5 Indian Rock, Suffern, NY 10901"
		}
	},
	{
		"model": "twilio_mgr.location",
		"pk": 135,
		"fields": {
			"name": "CVS Pharmacy",
			"lon": -73.9755189,
			"lat": 40.7881027,
			"type": "Pharmacy",
			"address": "540 Amsterdam Ave, New York, NY 10024"
		}
	},
	{
		"model": "twilio_mgr.location",
		"pk": 136,
		"fields": {
			"name": "CVS Pharmacy",
			"lon": -73.7109094,
			"lat": 42.5975769,
			"type": "Pharmacy",
			"address": "598 Columbia Turnpike, East Greenbush, NY 12061"
		}
	},
	{
		"model": "twilio_mgr.location",
		"pk": 137,
		"fields": {
			"name": "CVS Pharmacy",
			"lon": -73.9713866,
			"lat": 40.7588892,
			"type": "Pharmacy",
			"address": "630 Lexington Ave, New York, NY 10022"
		}
	},
	{
		"model": "twilio_mgr.location",
		"pk": 138,
		"fields": {
			"name": "CVS Pharmacy",
			"lon": -74.1630954,
			"lat": 40.5602505,
			"type": "Pharmacy",
			"address": "640 Arthur Kill Rd, Staten Island, NY 10308"
		}
	},
	{
		"model": "twilio_mgr.location",
		"pk": 139,
		"fields": {
			"name": "CVS Pharmacy",
			"lon": -74.013395,
			"lat": 41.0605059,
			"type": "Pharmacy",
			"address": "75 N Middletown Rd, Pearl River, NY 10965"
		}
	},
	{
		"model": "twilio_mgr.location",
		"pk": 140,
		"fields": {
			"name": "CVS Pharmacy",
			"lon": -73.988742,
			"lat": 42.2938828,
			"type": "Pharmacy",
			"address": "7600 NY-32, Cairo, NY 12413"
		}
	},
	{
		"model": "twilio_mgr.location",
		"pk": 141,
		"fields": {
			"name": "CVS Pharmacy",
			"lon": -73.8719071,
			"lat": 40.712829,
			"type": "Pharmacy",
			"address": "7960 Metropolitan Ave, Middle Village, NY 11379"
		}
	},
	{
		"model": "twilio_mgr.location",
		"pk": 142,
		"fields": {
			"name": "CVS Pharmacy",
			"lon": -74.1164356,
			"lat": 40.628743,
			"type": "Pharmacy",
			"address": "812 Forest Ave, Staten Island, NY 10310"
		}
	},
	{
		"model": "twilio_mgr.location",
		"pk": 143,
		"fields": {
			"name": "CVS Pharmacy",
			"lon": -73.7852942,
			"lat": 42.8645048,
			"type": "Pharmacy",
			"address": "839 NY-146, Clifton Park, NY 12065"
		}
	},
	{
		"model": "twilio_mgr.location",
		"pk": 144,
		"fields": {
			"name": "CVS Pharmacy",
			"lon": -73.7896124,
			"lat": 42.6809819,
			"type": "Pharmacy",
			"address": "885 Central Ave, Albany, NY 12206"
		}
	},
	{
		"model": "twilio_mgr.location",
		"pk": 145,
		"fields": {
			"name": "CVS Pharmacy",
			"lon": -73.8783316,
			"lat": 40.7565488,
			"type": "Pharmacy",
			"address": "89-11 Northern Blvd, Jackson Heights, NY 11372"
		}
	},
	{
		"model": "twilio_mgr.location",
		"pk": 146,
		"fields": {
			"name": "CVS Pharmacy",
			"lon": -77.5609233,
			"lat": 43.1238494,
			"type": "Pharmacy",
			"address": "2100 Monroe Ave, Rochester, NY 14618"
		}
	},
	{
		"model": "twilio_mgr.location",
		"pk": 147,
		"fields": {
			"name": "CVS Pharmacy",
			"lon": -73.9289095,
			"lat": 40.6343505,
			"type": "Pharmacy",
			"address": "4901 Kings Hwy, Brooklyn, NY 11234"
		}
	},
	{
		"model": "twilio_mgr.location",
		"pk": 148,
		"fields": {
			"name": "CVS Pharmacy",
			"lon": -77.7051089,
			"lat": 43.169724,
			"type": "Pharmacy",
			"address": "525 Spencerport Rd, Rochester, NY 14606"
		}
	},
	{
		"model": "twilio_mgr.location",
		"pk": 149,
		"fields": {
			"name": "Dale Pharmacy & Surgical",
			"lon": -73.8393225,
			"lat": 40.695812,
			"type": "Pharmacy",
			"address": "108-13 Jamaica Ave, Jamaica, NY 11418"
		}
	},
	{
		"model": "twilio_mgr.location",
		"pk": 150,
		"fields": {
			"name": "Dansville Police Department",
			"lon": -77.6957075,
			"lat": 42.5595555,
			"type": "Police",
			"address": "14 Clara Barton St, Dansville, NY 14437"
		}
	},
	{
		"model": "twilio_mgr.location",
		"pk": 151,
		"fields": {
			"name": "DEA New York Division",
			"lon": -75.0592438,
			"lat": 41.6085973,
			"type": "Government",
			"address": "210 Bridge St, Narrowsburg, NY 12764"
		}
	},
	{
		"model": "twilio_mgr.location",
		"pk": 152,
		"fields": {
			"name": "Degraff Memorial Hospital",
			"lon": -78.862146,
			"lat": 43.025128,
			"type": "Hospital",
			"address": "445 Tremont St, North Tonawanda, NY 14120"
		}
	},
	{
		"model": "twilio_mgr.location",
		"pk": 153,
		"fields": {
			"name": "Delco Drugs & Specialty Pharmacy",
			"lon": -74.1653143,
			"lat": 40.544795,
			"type": "Pharmacy",
			"address": "3833 Richmond Ave, Staten Island, NY 10312"
		}
	},
	{
		"model": "twilio_mgr.location",
		"pk": 154,
		"fields": {
			"name": "Department of Family Services Robert Travis Bldg",
			"lon": -74.7123819,
			"lat": 41.795761,
			"type": "Government",
			"address": "16 Community Ln, Liberty, NY 12754"
		}
	},
	{
		"model": "twilio_mgr.location",
		"pk": 155,
		"fields": {
			"name": "Department of Health",
			"lon": -73.6257954,
			"lat": 41.4286204,
			"type": "Government",
			"address": "1 Geneva Rd, Brewster, NY 10509"
		}
	},
	{
		"model": "twilio_mgr.location",
		"pk": 156,
		"fields": {
			"name": "Depew Police Department",
			"lon": -78.6855745,
			"lat": 42.9050791,
			"type": "Police",
			"address": "85 Manitou St, Depew, NY 14043"
		}
	},
	{
		"model": "twilio_mgr.location",
		"pk": 157,
		"fields": {
			"name": "Desais Pharmacy",
			"lon": -73.9000996,
			"lat": 40.8847499,
			"type": "Pharmacy",
			"address": "228 W 238th St, Bronx, NY 10463"
		}
	},
	{
		"model": "twilio_mgr.location",
		"pk": 158,
		"fields": {
			"name": "Dexter Prescription Center",
			"lon": -78.853687,
			"lat": 42.9147209,
			"type": "Pharmacy",
			"address": "1453 Jefferson Ave, Buffalo, NY 14208"
		}
	},
	{
		"model": "twilio_mgr.location",
		"pk": 159,
		"fields": {
			"name": "Dolgeville Police Department",
			"lon": -74.7705087,
			"lat": 43.1033012,
			"type": "Police",
			"address": "41 N Main St, Dolgeville, NY 13329"
		}
	},
	{
		"model": "twilio_mgr.location",
		"pk": 160,
		"fields": {
			"name": "Dongan Hills Pharmacy",
			"lon": -74.1006801,
			"lat": 40.5915529,
			"type": "Pharmacy",
			"address": "1560 Richmond Rd, Staten Island, NY 10304"
		}
	},
	{
		"model": "twilio_mgr.location",
		"pk": 161,
		"fields": {
			"name": "Dryden Police Department",
			"lon": -76.2978284,
			"lat": 42.4895252,
			"type": "Police",
			"address": "16 South St, Dryden, NY 13053"
		}
	},
	{
		"model": "twilio_mgr.location",
		"pk": 162,
		"fields": {
			"name": "Duane Reade",
			"lon": -73.9902571,
			"lat": 40.734279,
			"type": "Pharmacy",
			"address": "1 Union Square E, New York, NY 10003"
		}
	},
	{
		"model": "twilio_mgr.location",
		"pk": 163,
		"fields": {
			"name": "Duane Reade",
			"lon": -73.9900714,
			"lat": 40.7341994,
			"type": "Pharmacy",
			"address": "1 Union Square South, New York, NY 10003"
		}
	},
	{
		"model": "twilio_mgr.location",
		"pk": 164,
		"fields": {
			"name": "Duane Reade",
			"lon": -73.8443709,
			"lat": 40.7204998,
			"type": "Pharmacy",
			"address": "107-16 71st Ave, Flushing, NY 11375"
		}
	},
	{
		"model": "twilio_mgr.location",
		"pk": 165,
		"fields": {
			"name": "Duane Reade",
			"lon": -73.9573556,
			"lat": 40.7825136,
			"type": "Pharmacy",
			"address": "1231 Madison Ave, New York, NY 10128"
		}
	},
	{
		"model": "twilio_mgr.location",
		"pk": 166,
		"fields": {
			"name": "Duane Reade",
			"lon": -73.8296816,
			"lat": 40.7593762,
			"type": "Pharmacy",
			"address": "136-02 Roosevelt Ave, Flushing, NY 11354"
		}
	},
	{
		"model": "twilio_mgr.location",
		"pk": 167,
		"fields": {
			"name": "Duane Reade",
			"lon": -73.9500368,
			"lat": 40.7714637,
			"type": "Pharmacy",
			"address": "1498 York Ave, New York, NY 10075"
		}
	},
	{
		"model": "twilio_mgr.location",
		"pk": 168,
		"fields": {
			"name": "Duane Reade",
			"lon": -73.978543,
			"lat": 40.746168,
			"type": "Pharmacy",
			"address": "155 E 34th St, New York, NY 10016"
		}
	},
	{
		"model": "twilio_mgr.location",
		"pk": 169,
		"fields": {
			"name": "Duane Reade",
			"lon": -73.9722813,
			"lat": 40.7933261,
			"type": "Pharmacy",
			"address": "2522 Broadway, New York, NY 10025"
		}
	},
	{
		"model": "twilio_mgr.location",
		"pk": 170,
		"fields": {
			"name": "Duane Reade",
			"lon": -73.9734246,
			"lat": 40.6780599,
			"type": "Pharmacy",
			"address": "296 Flatbush Ave, Brooklyn, NY 11217"
		}
	},
	{
		"model": "twilio_mgr.location",
		"pk": 171,
		"fields": {
			"name": "Duane Reade",
			"lon": -74.0096853,
			"lat": 40.7069083,
			"type": "Pharmacy",
			"address": "40 Wall St, New York, NY 10005"
		}
	},
	{
		"model": "twilio_mgr.location",
		"pk": 172,
		"fields": {
			"name": "Duane Reade",
			"lon": -74.0108135,
			"lat": 40.6450073,
			"type": "Pharmacy",
			"address": "5008 5th Ave, Brooklyn, NY 11220"
		}
	},
	{
		"model": "twilio_mgr.location",
		"pk": 173,
		"fields": {
			"name": "Duane Reade",
			"lon": -73.9790395,
			"lat": 40.7603402,
			"type": "Pharmacy",
			"address": "51 W 51st St, New York, NY 10019"
		}
	},
	{
		"model": "twilio_mgr.location",
		"pk": 174,
		"fields": {
			"name": "Duane Reade",
			"lon": -73.9899357,
			"lat": 40.7575866,
			"type": "Pharmacy",
			"address": "661 8th Ave, New York, NY 10036"
		}
	},
	{
		"model": "twilio_mgr.location",
		"pk": 175,
		"fields": {
			"name": "Duane Reade",
			"lon": -73.9922843,
			"lat": 40.7429529,
			"type": "Pharmacy",
			"address": "71 W 23rd St, New York, NY 10010"
		}
	},
	{
		"model": "twilio_mgr.location",
		"pk": 176,
		"fields": {
			"name": "Duane Reade",
			"lon": -73.9665724,
			"lat": 40.793881,
			"type": "Pharmacy",
			"address": "775 Columbus Ave, New York, NY 10025"
		}
	},
	{
		"model": "twilio_mgr.location",
		"pk": 177,
		"fields": {
			"name": "Duane Reade",
			"lon": -73.9673607,
			"lat": 40.7599046,
			"type": "Pharmacy",
			"address": "949 3rd Ave, New York, NY 10022"
		}
	},
	{
		"model": "twilio_mgr.location",
		"pk": 178,
		"fields": {
			"name": "Durham Police Department",
			"lon": -74.1323929,
			"lat": 42.403044,
			"type": "Police",
			"address": "7309 NY-81, East Durham, NY 12423"
		}
	},
	{
		"model": "twilio_mgr.location",
		"pk": 179,
		"fields": {
			"name": "Dutchess Chemists",
			"lon": -73.7073066,
			"lat": 41.8693335,
			"type": "Pharmacy",
			"address": "6032 NY-82, Stanfordville, NY 12581"
		}
	},
	{
		"model": "twilio_mgr.location",
		"pk": 180,
		"fields": {
			"name": "Dutchess County Sheriff's Office",
			"lon": -73.9214135,
			"lat": 41.711014,
			"type": "Police",
			"address": "150 N Hamilton St, Poughkeepsie, NY 12601"
		}
	},
	{
		"model": "twilio_mgr.location",
		"pk": 181,
		"fields": {
			"name": "Dutchess County Sheriff's Office Pawling Substation",
			"lon": -73.6006802,
			"lat": 41.5624634,
			"type": "Police",
			"address": "9 Memorial Ave, Pawling, NY 12564"
		}
	},
	{
		"model": "twilio_mgr.location",
		"pk": 182,
		"fields": {
			"name": "East Aurora/Town of Aurora PD",
			"lon": -78.6134062,
			"lat": 42.7676802,
			"type": "Police",
			"address": "571 Main St, East Aurora, NY 14052"
		}
	},
	{
		"model": "twilio_mgr.location",
		"pk": 183,
		"fields": {
			"name": "East Fishkill Town Police",
			"lon": -73.7954316,
			"lat": 41.5532916,
			"type": "Police",
			"address": "2468 NY-52, Hopewell Junction, NY 12533"
		}
	},
	{
		"model": "twilio_mgr.location",
		"pk": 184,
		"fields": {
			"name": "East Greenbush Police Department",
			"lon": -73.7313052,
			"lat": 42.6173544,
			"type": "Police",
			"address": "225 Columbia Turnpike, Rensselaer, NY 12144"
		}
	},
	{
		"model": "twilio_mgr.location",
		"pk": 185,
		"fields": {
			"name": "East Hampton Police Department",
			"lon": -72.2500821,
			"lat": 40.9557072,
			"type": "Police",
			"address": "131 Wainscott NW Rd, Wainscott, NY 11975"
		}
	},
	{
		"model": "twilio_mgr.location",
		"pk": 186,
		"fields": {
			"name": "East Hampton Village Police Department",
			"lon": -72.1831234,
			"lat": 40.9693839,
			"type": "Police",
			"address": "1 Cedar St, East Hampton, NY 11937"
		}
	},
	{
		"model": "twilio_mgr.location",
		"pk": 187,
		"fields": {
			"name": "East Rochester Police Department",
			"lon": -77.4855207,
			"lat": 43.1125486,
			"type": "Police",
			"address": "317 Main St, East Rochester, NY 14445"
		}
	},
	{
		"model": "twilio_mgr.location",
		"pk": 188,
		"fields": {
			"name": "Eastchester Police Department",
			"lon": -73.8113961,
			"lat": 40.9555192,
			"type": "Police",
			"address": "40 Mill Rd, Eastchester, NY 10709"
		}
	},
	{
		"model": "twilio_mgr.location",
		"pk": 189,
		"fields": {
			"name": "Echo Pharmacy",
			"lon": -72.9987427,
			"lat": 40.9439452,
			"type": "Pharmacy",
			"address": "56 Echo Ave, Miller Place, NY 11764"
		}
	},
	{
		"model": "twilio_mgr.location",
		"pk": 190,
		"fields": {
			"name": "Ecopark",
			"lon": -77.697094,
			"lat": 43.1019043,
			"type": "Recycling Center",
			"address": "10 Avion Dr, Rochester, NY 14624"
		}
	},
	{
		"model": "twilio_mgr.location",
		"pk": 191,
		"fields": {
			"name": "Ellicottville Pharmacy",
			"lon": -78.6658024,
			"lat": 42.2659541,
			"type": "Pharmacy",
			"address": "6133 US-219, Ellicottville, NY 14731"
		}
	},
	{
		"model": "twilio_mgr.location",
		"pk": 192,
		"fields": {
			"name": "Elma Town Hall",
			"lon": -78.6386991,
			"lat": 42.8144338,
			"type": "Government",
			"address": "1600 Bowen Rd, Elma, NY 14059"
		}
	},
	{
		"model": "twilio_mgr.location",
		"pk": 193,
		"fields": {
			"name": "Elmsford Police Department",
			"lon": -73.820137,
			"lat": 41.053533,
			"type": "Police",
			"address": "15 S Stone Ave, Elmsford, NY 10523"
		}
	},
	{
		"model": "twilio_mgr.location",
		"pk": 194,
		"fields": {
			"name": "Erie Community College Safety Office City Campus",
			"lon": -78.8758761,
			"lat": 42.8794249,
			"type": "School",
			"address": "121 Ellicott St, Buffalo, NY 14203"
		}
	},
	{
		"model": "twilio_mgr.location",
		"pk": 195,
		"fields": {
			"name": "Erie Community College Safety Office South Campus",
			"lon": -78.7981276,
			"lat": 42.7729759,
			"type": "School",
			"address": "4041 Southwestern Blvd, Orchard Park, NY 14127"
		}
	},
	{
		"model": "twilio_mgr.location",
		"pk": 196,
		"fields": {
			"name": "Erie County Medical Center",
			"lon": -78.8318242,
			"lat": 42.9264245,
			"type": "Government",
			"address": "462 Grider St, Buffalo, NY 14215"
		}
	},
	{
		"model": "twilio_mgr.location",
		"pk": 197,
		"fields": {
			"name": "Erie County Sheriff's Office",
			"lon": -78.877014,
			"lat": 42.887338,
			"type": "Police",
			"address": "10 Delaware Ave, Buffalo, NY 14202"
		}
	},
	{
		"model": "twilio_mgr.location",
		"pk": 198,
		"fields": {
			"name": "Erie County Sheriff's Substation Colden",
			"lon": -78.684927,
			"lat": 42.643237,
			"type": "Police",
			"address": "8812 State Rd, Colden, NY 14033"
		}
	},
	{
		"model": "twilio_mgr.location",
		"pk": 199,
		"fields": {
			"name": "Erie County Sheriff's Substation Grand Island",
			"lon": -78.9603392,
			"lat": 43.0217524,
			"type": "Police",
			"address": "1856 Whitehaven Rd, Grand Island, NY 14072"
		}
	},
	{
		"model": "twilio_mgr.location",
		"pk": 200,
		"fields": {
			"name": "Erie County Sheriff's Substation Springville",
			"lon": -78.6652703,
			"lat": 42.5100446,
			"type": "Police",
			"address": "65 Franklin St, Springville, NY 14141"
		}
	},
	{
		"model": "twilio_mgr.location",
		"pk": 201,
		"fields": {
			"name": "ErieCommunity College",
			"lon": -78.7218196,
			"lat": 42.9613654,
			"type": "School",
			"address": "6205 Main St, Williamsville, NY 14221"
		}
	},
	{
		"model": "twilio_mgr.location",
		"pk": 202,
		"fields": {
			"name": "Esco Drug",
			"lon": -73.9904178,
			"lat": 40.7619194,
			"type": "Pharmacy",
			"address": "687 9th Ave, New York, NY 10036"
		}
	},
	{
		"model": "twilio_mgr.location",
		"pk": 203,
		"fields": {
			"name": "Established Drugs",
			"lon": -73.9486339,
			"lat": 40.6434649,
			"type": "Pharmacy",
			"address": "3001 Clarendon Rd, Brooklyn, NY 11226"
		}
	},
	{
		"model": "twilio_mgr.location",
		"pk": 204,
		"fields": {
			"name": "Evans Municipal Center",
			"lon": -79.041817,
			"lat": 42.6464481,
			"type": "Government",
			"address": "8787 Erie Rd #5, Angola, NY 14006"
		}
	},
	{
		"model": "twilio_mgr.location",
		"pk": 205,
		"fields": {
			"name": "Fairport Police Department",
			"lon": -77.4413693,
			"lat": 43.1005168,
			"type": "Police",
			"address": "31 S Main St, Fairport, NY 14450"
		}
	},
	{
		"model": "twilio_mgr.location",
		"pk": 206,
		"fields": {
			"name": "Fallsburg Police Station",
			"lon": -74.628702,
			"lat": 41.70768,
			"type": "Government",
			"address": "19 Railroad Plaza, South Fallsburg, NY 12779"
		}
	},
	{
		"model": "twilio_mgr.location",
		"pk": 207,
		"fields": {
			"name": "Family Pharmacy Plus",
			"lon": -78.6956636,
			"lat": 43.1587307,
			"type": "Pharmacy",
			"address": "320 S Transit St, Lockport, NY 14094"
		}
	},
	{
		"model": "twilio_mgr.location",
		"pk": 208,
		"fields": {
			"name": "Fillmore Pharmacy",
			"lon": -78.112299,
			"lat": 42.4617742,
			"type": "Pharmacy",
			"address": "272 S Genesee St, Fillmore, NY 14735"
		}
	},
	{
		"model": "twilio_mgr.location",
		"pk": 209,
		"fields": {
			"name": "Floral Park Police Department",
			"lon": -73.7057204,
			"lat": 40.723983,
			"type": "Police",
			"address": "1 Floral Blvd, Floral Park, NY 11001"
		}
	},
	{
		"model": "twilio_mgr.location",
		"pk": 210,
		"fields": {
			"name": "Floral Park Police Department",
			"lon": -73.7315829,
			"lat": 40.7773752,
			"type": "Police",
			"address": "Great Neck Rd, North Hempstead, NY 11021"
		}
	},
	{
		"model": "twilio_mgr.location",
		"pk": 211,
		"fields": {
			"name": "Fort Edward Police Department",
			"lon": -73.579773,
			"lat": 43.2636867,
			"type": "Police",
			"address": "118 Broadway, Fort Edward, NY 12828"
		}
	},
	{
		"model": "twilio_mgr.location",
		"pk": 212,
		"fields": {
			"name": "Foxcare Pharmacy",
			"lon": -75.0291695,
			"lat": 42.456269,
			"type": "Pharmacy",
			"address": "1 Foxcare Dr, Oneonta, NY 13820"
		}
	},
	{
		"model": "twilio_mgr.location",
		"pk": 213,
		"fields": {
			"name": "Franco Pharmacy",
			"lon": -73.8887837,
			"lat": 40.749456,
			"type": "Pharmacy",
			"address": "77-01 37th Ave, Flushing, NY 11372"
		}
	},
	{
		"model": "twilio_mgr.location",
		"pk": 214,
		"fields": {
			"name": "Franhill Pharmacy",
			"lon": -73.7607992,
			"lat": 40.7210754,
			"type": "Pharmacy",
			"address": "204-19 Hillside Avenue, Hollis, NY 11423"
		}
	},
	{
		"model": "twilio_mgr.location",
		"pk": 215,
		"fields": {
			"name": "Franklin County Sheriff's Office",
			"lon": -74.3182999,
			"lat": 44.869814,
			"type": "Police",
			"address": "45 Bare Hill Rd, Malone, NY 12953"
		}
	},
	{
		"model": "twilio_mgr.location",
		"pk": 216,
		"fields": {
			"name": "Franklin Square Pharmacy",
			"lon": -73.6746831,
			"lat": 40.7071075,
			"type": "Pharmacy",
			"address": "925 Hempstead Turnpike, Franklin Square, NY 11010"
		}
	},
	{
		"model": "twilio_mgr.location",
		"pk": 217,
		"fields": {
			"name": "Frederick Ferris Thompson Hos",
			"lon": -77.2897296,
			"lat": 42.8762316,
			"type": "Hospital",
			"address": "350 Parrish St, Canandaigua, NY 14424"
		}
	},
	{
		"model": "twilio_mgr.location",
		"pk": 218,
		"fields": {
			"name": "Fulton County Sheriff Office",
			"lon": -74.3490858,
			"lat": 43.018037,
			"type": "Police",
			"address": "2712 NY-29, Johnstown, NY 12095"
		}
	},
	{
		"model": "twilio_mgr.location",
		"pk": 219,
		"fields": {
			"name": "Galens Pharmacy",
			"lon": -76.8721411,
			"lat": 43.0825038,
			"type": "Pharmacy",
			"address": "17 Sodus St, Clyde, NY 14433"
		}
	},
	{
		"model": "twilio_mgr.location",
		"pk": 220,
		"fields": {
			"name": "Garden City Police Department",
			"lon": -73.6368128,
			"lat": 40.7265409,
			"type": "Police",
			"address": "349 Stewart Ave, Garden City, NY 11530"
		}
	},
	{
		"model": "twilio_mgr.location",
		"pk": 221,
		"fields": {
			"name": "Gates Police Dept",
			"lon": -77.6939461,
			"lat": 43.1487544,
			"type": "Police",
			"address": "1605 Buffalo Rd, Rochester, NY 14624"
		}
	},
	{
		"model": "twilio_mgr.location",
		"pk": 222,
		"fields": {
			"name": "Geddes Police Department",
			"lon": -76.2121443,
			"lat": 43.0606055,
			"type": "Police",
			"address": "1000 Woods Rd, Solvay, NY 13209"
		}
	},
	{
		"model": "twilio_mgr.location",
		"pk": 223,
		"fields": {
			"name": "Genesee County Sheriff's Office",
			"lon": -78.1992786,
			"lat": 43.0148533,
			"type": "Police",
			"address": "165 Park Rd, Batavia, NY 14020"
		}
	},
	{
		"model": "twilio_mgr.location",
		"pk": 224,
		"fields": {
			"name": "Geneva Police Department",
			"lon": -76.9787976,
			"lat": 42.8711652,
			"type": "Police",
			"address": "255 Exchange St, Geneva, NY 14456"
		}
	},
	{
		"model": "twilio_mgr.location",
		"pk": 225,
		"fields": {
			"name": "Gerould's Prof Pharmacy",
			"lon": -76.822857,
			"lat": 42.085105,
			"type": "Pharmacy",
			"address": "215 Hoffman St, Elmira, NY 14905"
		}
	},
	{
		"model": "twilio_mgr.location",
		"pk": 226,
		"fields": {
			"name": "Glen Cove Police Department",
			"lon": -73.6314988,
			"lat": 40.8631802,
			"type": "Police",
			"address": "1 Bridge St, Glen Cove, NY 11542"
		}
	},
	{
		"model": "twilio_mgr.location",
		"pk": 227,
		"fields": {
			"name": "Glens Falls Police Department",
			"lon": -73.6443307,
			"lat": 43.3108637,
			"type": "Police",
			"address": "42 Ridge St, Glens Falls, NY 12801"
		}
	},
	{
		"model": "twilio_mgr.location",
		"pk": 228,
		"fields": {
			"name": "Gloversville Police Department",
			"lon": -74.3493081,
			"lat": 43.0519693,
			"type": "Police",
			"address": "3 Frontage Rd, Gloversville, NY 12078"
		}
	},
	{
		"model": "twilio_mgr.location",
		"pk": 229,
		"fields": {
			"name": "Goshen Police Department",
			"lon": -74.3263382,
			"lat": 41.402036,
			"type": "Police",
			"address": "1 Grand St, Goshen, NY 10924"
		}
	},
	{
		"model": "twilio_mgr.location",
		"pk": 230,
		"fields": {
			"name": "Gouverneur Hospital",
			"lon": -75.4742644,
			"lat": 44.3376121,
			"type": "Hospital",
			"address": "77 W Barney St, Gouverneur, NY 13642"
		}
	},
	{
		"model": "twilio_mgr.location",
		"pk": 231,
		"fields": {
			"name": "Gowanda Village Municipal Building",
			"lon": -78.9324926,
			"lat": 42.4624474,
			"type": "Police",
			"address": "27 E Main St, Gowanda, NY 14070"
		}
	},
	{
		"model": "twilio_mgr.location",
		"pk": 232,
		"fields": {
			"name": "Grand Island Police Dept",
			"lon": -78.9651682,
			"lat": 43.0228915,
			"type": "Police",
			"address": "2255 Baseline Rd, Grand Island, NY 14072"
		}
	},
	{
		"model": "twilio_mgr.location",
		"pk": 233,
		"fields": {
			"name": "Grand Island Town Hall",
			"lon": -78.978555,
			"lat": 43.095818,
			"type": "Government",
			"address": "1560 Military Rd, Niagara Falls, NY 14304"
		}
	},
	{
		"model": "twilio_mgr.location",
		"pk": 234,
		"fields": {
			"name": "Granville Police Department",
			"lon": -73.266388,
			"lat": 43.402151,
			"type": "Police",
			"address": "51 Quaker St, Granville, NY 12832"
		}
	},
	{
		"model": "twilio_mgr.location",
		"pk": 235,
		"fields": {
			"name": "Greece Police Department",
			"lon": -77.6978548,
			"lat": 43.2577179,
			"type": "Police",
			"address": "6 Vince Tofany Blvd, Rochester, NY 14612"
		}
	},
	{
		"model": "twilio_mgr.location",
		"pk": 236,
		"fields": {
			"name": "Greenburgh Police Department",
			"lon": -73.7884634,
			"lat": 41.0412134,
			"type": "Police",
			"address": "188 Tarrytown Rd, White Plains, NY 10607"
		}
	},
	{
		"model": "twilio_mgr.location",
		"pk": 237,
		"fields": {
			"name": "Greene County Sheriff's Office",
			"lon": -73.8639135,
			"lat": 42.2175391,
			"type": "Police",
			"address": "80 Bridge St, Catskill, NY 12414"
		}
	},
	{
		"model": "twilio_mgr.location",
		"pk": 238,
		"fields": {
			"name": "Greenfield Pharmacy",
			"lon": -73.9636034,
			"lat": 40.6413127,
			"type": "Pharmacy",
			"address": "1526 Cortelyou Rd, Brooklyn, NY 11226"
		}
	},
	{
		"model": "twilio_mgr.location",
		"pk": 239,
		"fields": {
			"name": "Greenvale Pharmacy",
			"lon": -73.629636,
			"lat": 40.8093812,
			"type": "Pharmacy",
			"address": "5 Northern Blvd, Greenvale, NY 11548"
		}
	},
	{
		"model": "twilio_mgr.location",
		"pk": 240,
		"fields": {
			"name": "Greenwich Police Department",
			"lon": -73.5030424,
			"lat": 43.0914973,
			"type": "Police",
			"address": "6 Academy St, Greenwich, NY 12834"
		}
	},
	{
		"model": "twilio_mgr.location",
		"pk": 241,
		"fields": {
			"name": "Groton Police Department",
			"lon": -76.36712,
			"lat": 42.5905345,
			"type": "Police",
			"address": "108 E Cortland St, Groton, NY 13073"
		}
	},
	{
		"model": "twilio_mgr.location",
		"pk": 242,
		"fields": {
			"name": "Hammondsport Police Department",
			"lon": -77.219264,
			"lat": 42.41024,
			"type": "Police",
			"address": "18 Water St, Hammondsport, NY 14840"
		}
	},
	{
		"model": "twilio_mgr.location",
		"pk": 243,
		"fields": {
			"name": "Harpell Chemists",
			"lon": -73.8136358,
			"lat": 40.7889973,
			"type": "Pharmacy",
			"address": "12-65 150th St, Flushing, NY 11357"
		}
	},
	{
		"model": "twilio_mgr.location",
		"pk": 244,
		"fields": {
			"name": "Harrison Police Department",
			"lon": -73.7242026,
			"lat": 40.9977761,
			"type": "Police",
			"address": "650 North St, Harrison, NY 10528"
		}
	},
	{
		"model": "twilio_mgr.location",
		"pk": 245,
		"fields": {
			"name": "Hastings-on-Hudson Police Department",
			"lon": -73.883751,
			"lat": 40.995749,
			"type": "Police",
			"address": "7 Maple Ave #1, Hastings-On-Hudson, NY 10706"
		}
	},
	{
		"model": "twilio_mgr.location",
		"pk": 246,
		"fields": {
			"name": "Healthsmart",
			"lon": -73.861892,
			"lat": 41.1621126,
			"type": "Pharmacy",
			"address": "203 Main St, Ossining, NY 10562"
		}
	},
	{
		"model": "twilio_mgr.location",
		"pk": 247,
		"fields": {
			"name": "Herbst Pharmacy",
			"lon": -76.6234166,
			"lat": 43.035172,
			"type": "Pharmacy",
			"address": "1 Church St, Port Byron, NY 13140"
		}
	},
	{
		"model": "twilio_mgr.location",
		"pk": 248,
		"fields": {
			"name": "Herkimer County Sheriff's Office",
			"lon": -74.9885585,
			"lat": 43.0287228,
			"type": "Police",
			"address": "320 N Main St #2900, Herkimer, NY 13350"
		}
	},
	{
		"model": "twilio_mgr.location",
		"pk": 249,
		"fields": {
			"name": "Herkimer Police Department",
			"lon": -74.985866,
			"lat": 43.0272227,
			"type": "Police",
			"address": "120 Green St, Herkimer, NY 13350"
		}
	},
	{
		"model": "twilio_mgr.location",
		"pk": 250,
		"fields": {
			"name": "Highland Falls Police Department",
			"lon": -73.9653155,
			"lat": 41.3705452,
			"type": "Police",
			"address": "301 Main St, Highland Falls, NY 10928"
		}
	},
	{
		"model": "twilio_mgr.location",
		"pk": 251,
		"fields": {
			"name": "Holland Town Hall",
			"lon": -78.5422609,
			"lat": 42.6428619,
			"type": "Government",
			"address": "47 Pearl St, Holland, NY 14080"
		}
	},
	{
		"model": "twilio_mgr.location",
		"pk": 252,
		"fields": {
			"name": "Holley Fire Department",
			"lon": -78.0255222,
			"lat": 43.2243654,
			"type": "Police",
			"address": "7 Thomas St, Holley, NY 14470"
		}
	},
	{
		"model": "twilio_mgr.location",
		"pk": 253,
		"fields": {
			"name": "Horseheads Police Department",
			"lon": -76.8206933,
			"lat": 42.1668176,
			"type": "Police",
			"address": "202 S Main St, Horseheads, NY 14845"
		}
	},
	{
		"model": "twilio_mgr.location",
		"pk": 254,
		"fields": {
			"name": "Hudson Falls Police Department",
			"lon": -73.5846096,
			"lat": 43.3028937,
			"type": "Police",
			"address": "218 Main St, Hudson Falls, NY 12839"
		}
	},
	{
		"model": "twilio_mgr.location",
		"pk": 255,
		"fields": {
			"name": "Hudson Square Pharmacy",
			"lon": -74.0080699,
			"lat": 40.7276924,
			"type": "Pharmacy",
			"address": "345 Hudson St, New York, NY 10014"
		}
	},
	{
		"model": "twilio_mgr.location",
		"pk": 256,
		"fields": {
			"name": "I & O Pharmacy",
			"lon": -73.9515473,
			"lat": 40.724703,
			"type": "Pharmacy",
			"address": "669 Manhattan Ave, Brooklyn, NY 11222"
		}
	},
	{
		"model": "twilio_mgr.location",
		"pk": 257,
		"fields": {
			"name": "Ilion Police Department",
			"lon": -75.0374079,
			"lat": 43.0143321,
			"type": "Police",
			"address": "55 First Street, Ilion, NY 13357"
		}
	},
	{
		"model": "twilio_mgr.location",
		"pk": 258,
		"fields": {
			"name": "Irondequoit Police Department",
			"lon": -77.5817049,
			"lat": 43.2125938,
			"type": "Police",
			"address": "1300 Titus Ave, Irondequoit, NY 14617"
		}
	},
	{
		"model": "twilio_mgr.location",
		"pk": 259,
		"fields": {
			"name": "Isla Drugs Stores",
			"lon": -73.943261,
			"lat": 40.7939477,
			"type": "Pharmacy",
			"address": "1994 3rd Ave, New York, NY 10029"
		}
	},
	{
		"model": "twilio_mgr.location",
		"pk": 260,
		"fields": {
			"name": "Islip Pharmacy and Surgical",
			"lon": -73.2153704,
			"lat": 40.7289469,
			"type": "Pharmacy",
			"address": "437 Main St, Islip, NY 11751"
		}
	},
	{
		"model": "twilio_mgr.location",
		"pk": 261,
		"fields": {
			"name": "Ithaca Police Department",
			"lon": -76.4975558,
			"lat": 42.437198,
			"type": "Police",
			"address": "120 E Clinton St, Ithaca, NY 14850"
		}
	},
	{
		"model": "twilio_mgr.location",
		"pk": 262,
		"fields": {
			"name": "J & D Chemists",
			"lon": -73.7238234,
			"lat": 40.652467,
			"type": "Pharmacy",
			"address": "945 Rosedale Rd, Valley Stream, NY 11581"
		}
	},
	{
		"model": "twilio_mgr.location",
		"pk": 263,
		"fields": {
			"name": "J A K Pharma",
			"lon": -73.8887257,
			"lat": 40.8545503,
			"type": "Pharmacy",
			"address": "2343 Arthur Ave, Bronx, NY 10458"
		}
	},
	{
		"model": "twilio_mgr.location",
		"pk": 264,
		"fields": {
			"name": "J Rutowski & Sons",
			"lon": -78.1327476,
			"lat": 42.741437,
			"type": "Pharmacy",
			"address": "75 N Main St, Warsaw, NY 14569"
		}
	},
	{
		"model": "twilio_mgr.location",
		"pk": 265,
		"fields": {
			"name": "Jamestown Police Department",
			"lon": -79.2381007,
			"lat": 42.0961665,
			"type": "Police",
			"address": "201 E 2nd St, Jamestown, NY 14701"
		}
	},
	{
		"model": "twilio_mgr.location",
		"pk": 266,
		"fields": {
			"name": "Jefferson County Sheriff's Department",
			"lon": -75.9277097,
			"lat": 43.9727741,
			"type": "Police",
			"address": "753 Waterman Dr, Watertown, NY 13601"
		}
	},
	{
		"model": "twilio_mgr.location",
		"pk": 267,
		"fields": {
			"name": "Jefferson Pharmacy",
			"lon": -74.9353014,
			"lat": 41.7799207,
			"type": "Government",
			"address": "4892 E Main St, Jeffersonville, NY 12748"
		}
	},
	{
		"model": "twilio_mgr.location",
		"pk": 268,
		"fields": {
			"name": "Johnson City Elks",
			"lon": -75.9909216,
			"lat": 42.1196159,
			"type": "Police",
			"address": "4212 Watson Blvd, Johnson City, NY 13790"
		}
	},
	{
		"model": "twilio_mgr.location",
		"pk": 269,
		"fields": {
			"name": "Jordan Police Department",
			"lon": -76.4722595,
			"lat": 43.0656545,
			"type": "Police",
			"address": "7 Mechanic St, Jordan, NY 13080"
		}
	},
	{
		"model": "twilio_mgr.location",
		"pk": 270,
		"fields": {
			"name": "Keezac Pharmacy",
			"lon": -73.5274708,
			"lat": 40.6697926,
			"type": "Pharmacy",
			"address": "109 Bedford Ave, Bellmore, NY 11710"
		}
	},
	{
		"model": "twilio_mgr.location",
		"pk": 271,
		"fields": {
			"name": "Kelly's Pharmacy",
			"lon": -73.8335148,
			"lat": 42.3624931,
			"type": "Pharmacy",
			"address": "34 Hope Plaza, Coxsackie, NY 12192"
		}
	},
	{
		"model": "twilio_mgr.location",
		"pk": 272,
		"fields": {
			"name": "Kelly's Pharmacy",
			"lon": -74.0211436,
			"lat": 42.4155595,
			"type": "Pharmacy",
			"address": "4852 NY-81, Greenville, NY 12083"
		}
	},
	{
		"model": "twilio_mgr.location",
		"pk": 273,
		"fields": {
			"name": "Kenmore Mercy Hospital",
			"lon": -78.8799441,
			"lat": 42.9776518,
			"type": "Hospital",
			"address": "2950 Elmwood Ave, Kenmore, NY 14217"
		}
	},
	{
		"model": "twilio_mgr.location",
		"pk": 274,
		"fields": {
			"name": "Kenmore Police Department",
			"lon": -78.8782763,
			"lat": 42.9624849,
			"type": "Police",
			"address": "2395 Elmwood Ave, Kenmore, NY 14217"
		}
	},
	{
		"model": "twilio_mgr.location",
		"pk": 275,
		"fields": {
			"name": "Kent Police Department",
			"lon": -73.670469,
			"lat": 41.4796698,
			"type": "Police",
			"address": "25 Sybils Crossing, Carmel Hamlet, NY 10512"
		}
	},
	{
		"model": "twilio_mgr.location",
		"pk": 276,
		"fields": {
			"name": "King Kullen Pharmacy",
			"lon": -72.9232114,
			"lat": 40.8881898,
			"type": "Pharmacy",
			"address": "1235 Middle Country Rd, Middle Island, NY 11953"
		}
	},
	{
		"model": "twilio_mgr.location",
		"pk": 277,
		"fields": {
			"name": "King Kullen Pharmacy",
			"lon": -72.481546,
			"lat": 41.019717,
			"type": "Pharmacy",
			"address": "315-25 Main Rd, Cutchogue, NY 11935"
		}
	},
	{
		"model": "twilio_mgr.location",
		"pk": 278,
		"fields": {
			"name": "King Kullen Pharmacy",
			"lon": -73.51533,
			"lat": 40.7245907,
			"type": "Pharmacy",
			"address": "3284 Hempstead Turnpike, Levittown, NY 11756"
		}
	},
	{
		"model": "twilio_mgr.location",
		"pk": 279,
		"fields": {
			"name": "King Kullen Pharmacy",
			"lon": -73.029113,
			"lat": 40.7610834,
			"type": "Pharmacy",
			"address": "440 Montauk Hwy, Patchogue, NY 11772"
		}
	},
	{
		"model": "twilio_mgr.location",
		"pk": 280,
		"fields": {
			"name": "King Kullen Pharmacy",
			"lon": -72.7947568,
			"lat": 40.867395,
			"type": "Pharmacy",
			"address": "460 County Rd 111 #12, Manorville, NY 11949"
		}
	},
	{
		"model": "twilio_mgr.location",
		"pk": 281,
		"fields": {
			"name": "King Kullen Pharmacy",
			"lon": -73.4158341,
			"lat": 40.8874365,
			"type": "Pharmacy",
			"address": "50 New York Ave, Halesite, NY 11743"
		}
	},
	{
		"model": "twilio_mgr.location",
		"pk": 282,
		"fields": {
			"name": "King Kullen Pharmacy",
			"lon": -73.031558,
			"lat": 40.9310684,
			"type": "Pharmacy",
			"address": "5507 Nesconset Hwy, Mt Sinai, NY 11766"
		}
	},
	{
		"model": "twilio_mgr.location",
		"pk": 283,
		"fields": {
			"name": "King Kullen Pharmacy",
			"lon": -72.7994112,
			"lat": 40.7993625,
			"type": "Pharmacy",
			"address": "552 Montauk Hwy, Center Moriches, NY 11934"
		}
	},
	{
		"model": "twilio_mgr.location",
		"pk": 284,
		"fields": {
			"name": "King Kullen Pharmacy",
			"lon": -73.4810883,
			"lat": 40.7441427,
			"type": "Pharmacy",
			"address": "598 Stewart Ave, Bethpage, NY 11714"
		}
	},
	{
		"model": "twilio_mgr.location",
		"pk": 285,
		"fields": {
			"name": "King's Tribeca Pharmacy",
			"lon": -74.0095405,
			"lat": 40.7161264,
			"type": "Pharmacy",
			"address": "5 Hudson St, New York, NY 10013"
		}
	},
	{
		"model": "twilio_mgr.location",
		"pk": 286,
		"fields": {
			"name": "Kings Point Police Department",
			"lon": -73.7550741,
			"lat": 40.8149567,
			"type": "Police",
			"address": "32 Stepping Stone Ln, Great Neck, NY 11024"
		}
	},
	{
		"model": "twilio_mgr.location",
		"pk": 287,
		"fields": {
			"name": "Kingston Police Department",
			"lon": -73.9855281,
			"lat": 41.9210145,
			"type": "Police",
			"address": "1 Garraghan Dr, Kingston, NY 12401"
		}
	},
	{
		"model": "twilio_mgr.location",
		"pk": 288,
		"fields": {
			"name": "Kinney Drugs",
			"lon": -76.130625,
			"lat": 43.0012075,
			"type": "Pharmacy",
			"address": "104 Lafayette Rd, Syracuse, NY 13205"
		}
	},
	{
		"model": "twilio_mgr.location",
		"pk": 289,
		"fields": {
			"name": "Kinney Drugs",
			"lon": -75.3828436,
			"lat": 43.0468792,
			"type": "Pharmacy",
			"address": "12 Franklin Ave, Clinton, NY 13323"
		}
	},
	{
		"model": "twilio_mgr.location",
		"pk": 290,
		"fields": {
			"name": "Kinney Drugs",
			"lon": -76.1056286,
			"lat": 43.0685803,
			"type": "Pharmacy",
			"address": "2912 James St, Syracuse, NY 13206"
		}
	},
	{
		"model": "twilio_mgr.location",
		"pk": 291,
		"fields": {
			"name": "Kinney Drugs",
			"lon": -76.1106129,
			"lat": 43.028819,
			"type": "Pharmacy",
			"address": "307 Nottingham Rd, Syracuse, NY 13210"
		}
	},
	{
		"model": "twilio_mgr.location",
		"pk": 292,
		"fields": {
			"name": "Kinney Drugs",
			"lon": -76.3303406,
			"lat": 43.1591646,
			"type": "Pharmacy",
			"address": "31 E Genesee St, Baldwinsville, NY 13027"
		}
	},
	{
		"model": "twilio_mgr.location",
		"pk": 293,
		"fields": {
			"name": "Kinney Drugs",
			"lon": -76.12266,
			"lat": 43.559594,
			"type": "Pharmacy",
			"address": "3873 Rome Rd, Pulaski, NY 13142"
		}
	},
	{
		"model": "twilio_mgr.location",
		"pk": 294,
		"fields": {
			"name": "Kinney Drugs",
			"lon": -76.149593,
			"lat": 43.0584194,
			"type": "Pharmacy",
			"address": "406 Butternut St, Syracuse, NY 13208"
		}
	},
	{
		"model": "twilio_mgr.location",
		"pk": 295,
		"fields": {
			"name": "Kinney Drugs",
			"lon": -75.8651056,
			"lat": 43.0532177,
			"type": "Pharmacy",
			"address": "540 Genesee St, Chittenango, NY 13037"
		}
	},
	{
		"model": "twilio_mgr.location",
		"pk": 296,
		"fields": {
			"name": "Kinney Drugs",
			"lon": -76.5570194,
			"lat": 42.9300798,
			"type": "Pharmacy",
			"address": "62 Owasco St, Auburn, NY 13021"
		}
	},
	{
		"model": "twilio_mgr.location",
		"pk": 297,
		"fields": {
			"name": "Kinney Drugs",
			"lon": -76.0923142,
			"lat": 43.1664568,
			"type": "Pharmacy",
			"address": "8150 Thompson Rd, Cicero, NY 13039"
		}
	},
	{
		"model": "twilio_mgr.location",
		"pk": 298,
		"fields": {
			"name": "Kinney Drugs",
			"lon": -75.9313543,
			"lat": 43.9839508,
			"type": "Pharmacy",
			"address": "905 Coffeen St, Watertown, NY 13601"
		}
	},
	{
		"model": "twilio_mgr.location",
		"pk": 299,
		"fields": {
			"name": "Lackawanna Police Department",
			"lon": -78.8251575,
			"lat": 42.826158,
			"type": "Police",
			"address": "714 Ridge Rd, Buffalo, NY 14218"
		}
	},
	{
		"model": "twilio_mgr.location",
		"pk": 300,
		"fields": {
			"name": "Lancaster Police Department",
			"lon": -78.6227616,
			"lat": 42.9293298,
			"type": "Police",
			"address": "529 Pavement Rd, Lancaster, NY 14086"
		}
	},
	{
		"model": "twilio_mgr.location",
		"pk": 301,
		"fields": {
			"name": "Larchmont Police Department",
			"lon": -73.7515091,
			"lat": 40.927252,
			"type": "Police",
			"address": "120 Larchmont Ave, Larchmont, NY 10538"
		}
	},
	{
		"model": "twilio_mgr.location",
		"pk": 302,
		"fields": {
			"name": "Larwood Pharmacy",
			"lon": -78.612384,
			"lat": 42.7648586,
			"type": "Pharmacy",
			"address": "597 Oakwood Ave, East Aurora, NY 14052"
		}
	},
	{
		"model": "twilio_mgr.location",
		"pk": 303,
		"fields": {
			"name": "Lenox Hill Hospital",
			"lon": -73.9607736,
			"lat": 40.7738805,
			"type": "Hospital",
			"address": "100 E 77th St, New York, NY 10075"
		}
	},
	{
		"model": "twilio_mgr.location",
		"pk": 304,
		"fields": {
			"name": "Leroy Police Department",
			"lon": -77.9923019,
			"lat": 42.9776465,
			"type": "Police",
			"address": "New York State Bicycle Rte 19 A & W Main St, Le Roy, NY 14482"
		}
	},
	{
		"model": "twilio_mgr.location",
		"pk": 305,
		"fields": {
			"name": "Lewisboro Police Department",
			"lon": -73.566878,
			"lat": 41.281385,
			"type": "Police",
			"address": "79 Bouton Rd, South Salem, NY 10590"
		}
	},
	{
		"model": "twilio_mgr.location",
		"pk": 306,
		"fields": {
			"name": "Lewiston Police Department",
			"lon": -79.0172243,
			"lat": 43.2180246,
			"type": "Police",
			"address": "4059 Creek Rd, Youngstown, NY 14174"
		}
	},
	{
		"model": "twilio_mgr.location",
		"pk": 307,
		"fields": {
			"name": "Liberty Police Department",
			"lon": -74.7468284,
			"lat": 41.8022332,
			"type": "Government",
			"address": "159 N Main St, Liberty, NY 12754"
		}
	},
	{
		"model": "twilio_mgr.location",
		"pk": 308,
		"fields": {
			"name": "Lima Village Pharmacy",
			"lon": -77.6119716,
			"lat": 42.9045638,
			"type": "Pharmacy",
			"address": "7298 W Main St, Lima, NY 14485"
		}
	},
	{
		"model": "twilio_mgr.location",
		"pk": 309,
		"fields": {
			"name": "Lincoln Pharmacy",
			"lon": -73.7714706,
			"lat": 42.645327,
			"type": "Pharmacy",
			"address": "300 Morton Ave, Albany, NY 12209"
		}
	},
	{
		"model": "twilio_mgr.location",
		"pk": 310,
		"fields": {
			"name": "Little Falls Police Department",
			"lon": -74.8555561,
			"lat": 43.0445606,
			"type": "Police",
			"address": "659 E Main St, Little Falls, NY 13365"
		}
	},
	{
		"model": "twilio_mgr.location",
		"pk": 311,
		"fields": {
			"name": "Livingston County Sheriff's Office",
			"lon": -77.8156503,
			"lat": 42.8009905,
			"type": "Police",
			"address": "4 Court St, Geneseo, NY 14454"
		}
	},
	{
		"model": "twilio_mgr.location",
		"pk": 312,
		"fields": {
			"name": "Livonia-lakeville Pharmacy",
			"lon": -77.6950108,
			"lat": 42.8329088,
			"type": "Pharmacy",
			"address": "5975 Big Tree Rd, Lakeville, NY 14480"
		}
	},
	{
		"model": "twilio_mgr.location",
		"pk": 313,
		"fields": {
			"name": "Lloyd Harbor Police Department",
			"lon": -73.4531247,
			"lat": 40.8941556,
			"type": "Police",
			"address": "380 W Neck Rd, Lloyd Harbor, NY 11743"
		}
	},
	{
		"model": "twilio_mgr.location",
		"pk": 314,
		"fields": {
			"name": "Long Beach Police Department",
			"lon": -73.6664513,
			"lat": 40.5896043,
			"type": "Police",
			"address": "1 W Chester St, Long Beach, NY 11561"
		}
	},
	{
		"model": "twilio_mgr.location",
		"pk": 315,
		"fields": {
			"name": "Long Island Jewish Medical Center",
			"lon": -73.706923,
			"lat": 40.7531964,
			"type": "Hospital",
			"address": "270-5 76th Ave, Queens, NY 11040"
		}
	},
	{
		"model": "twilio_mgr.location",
		"pk": 316,
		"fields": {
			"name": "Lynbrook Police Department",
			"lon": -73.6752487,
			"lat": 40.6576093,
			"type": "Police",
			"address": "1 Columbus Dr, Lynbrook, NY 11563"
		}
	},
	{
		"model": "twilio_mgr.location",
		"pk": 317,
		"fields": {
			"name": "Madison County Department of Social Services",
			"lon": -75.7086028,
			"lat": 43.0800366,
			"type": "Government",
			"address": "133 N Court St, Wampsville, NY 13163"
		}
	},
	{
		"model": "twilio_mgr.location",
		"pk": 318,
		"fields": {
			"name": "Madison County Sheriff's Office",
			"lon": -75.7074332,
			"lat": 43.080852,
			"type": "Police",
			"address": "138 N Court St #7, Wampsville, NY 13163"
		}
	},
	{
		"model": "twilio_mgr.location",
		"pk": 319,
		"fields": {
			"name": "Manson Pharmacy",
			"lon": -73.819005,
			"lat": 40.7089274,
			"type": "Pharmacy",
			"address": "137 Queens Blvd, Briarwood, NY 11435"
		}
	},
	{
		"model": "twilio_mgr.location",
		"pk": 320,
		"fields": {
			"name": "Margaretville Hospital Pharmacy",
			"lon": -74.6424667,
			"lat": 42.1464352,
			"type": "Hospital",
			"address": "42084 State Highway 28, Margaretville, NY 12455"
		}
	},
	{
		"model": "twilio_mgr.location",
		"pk": 321,
		"fields": {
			"name": "Marilla Town Hall",
			"lon": -78.5555807,
			"lat": 42.8392229,
			"type": "Government",
			"address": "1740 Two Rod Rd, Marilla, NY 14102"
		}
	},
	{
		"model": "twilio_mgr.location",
		"pk": 322,
		"fields": {
			"name": "Market Street Apothecary",
			"lon": -77.0577281,
			"lat": 42.1437901,
			"type": "Pharmacy",
			"address": "78 W Market St, Corning, NY 14830"
		}
	},
	{
		"model": "twilio_mgr.location",
		"pk": 323,
		"fields": {
			"name": "Marlborough Police Department",
			"lon": -73.9601909,
			"lat": 41.65924,
			"type": "Police",
			"address": "21 Milton Turnpike, Milton, NY 12547"
		}
	},
	{
		"model": "twilio_mgr.location",
		"pk": 324,
		"fields": {
			"name": "Massena Police Department",
			"lon": -74.893341,
			"lat": 44.931143,
			"type": "Police",
			"address": "60 Main St #3, Massena, NY 13662"
		}
	},
	{
		"model": "twilio_mgr.location",
		"pk": 325,
		"fields": {
			"name": "Matthews Pharmacy",
			"lon": -74.3941057,
			"lat": 41.7168648,
			"type": "Pharmacy",
			"address": "101 Canal St, Ellenville, NY 12428"
		}
	},
	{
		"model": "twilio_mgr.location",
		"pk": 326,
		"fields": {
			"name": "Meacham Pharmacy",
			"lon": -73.6902483,
			"lat": 40.7053665,
			"type": "Pharmacy",
			"address": "107 Meacham Ave, Elmont, NY 11003"
		}
	},
	{
		"model": "twilio_mgr.location",
		"pk": 327,
		"fields": {
			"name": "Mead Square Pharmacy",
			"lon": -77.41187,
			"lat": 42.9824139,
			"type": "Pharmacy",
			"address": "53 W Main St, Victor, NY 14564"
		}
	},
	{
		"model": "twilio_mgr.location",
		"pk": 328,
		"fields": {
			"name": "Medaille College Public Safety Office",
			"lon": -78.8546536,
			"lat": 42.929451,
			"type": "School",
			"address": "2 Agassiz Cir, Buffalo, NY 14214"
		}
	},
	{
		"model": "twilio_mgr.location",
		"pk": 329,
		"fields": {
			"name": "Medicine Shoppe",
			"lon": -78.3851711,
			"lat": 43.2201427,
			"type": "Pharmacy",
			"address": "142 E Center St, Medina, NY 14103"
		}
	},
	{
		"model": "twilio_mgr.location",
		"pk": 330,
		"fields": {
			"name": "Mercy Ambulatory Center",
			"lon": -78.7726319,
			"lat": 42.7803611,
			"type": "Hospital",
			"address": "3669 Southwestern Blvd, Orchard Park, NY 14127"
		}
	},
	{
		"model": "twilio_mgr.location",
		"pk": 331,
		"fields": {
			"name": "Middleport Family Health Center",
			"lon": -78.4848095,
			"lat": 43.2056228,
			"type": "Hospital",
			"address": "14105 Rochester Rd, Middleport, NY 14105"
		}
	},
	{
		"model": "twilio_mgr.location",
		"pk": 332,
		"fields": {
			"name": "Middleport Police Department",
			"lon": -78.4767604,
			"lat": 43.2121961,
			"type": "Police",
			"address": "22 Main St, Middleport, NY 14105"
		}
	},
	{
		"model": "twilio_mgr.location",
		"pk": 333,
		"fields": {
			"name": "Middletown Police Department",
			"lon": -74.4219224,
			"lat": 41.4455972,
			"type": "Police",
			"address": "2 James St, Middletown, NY 10940"
		}
	},
	{
		"model": "twilio_mgr.location",
		"pk": 334,
		"fields": {
			"name": "Millerton Police Department",
			"lon": -73.5097386,
			"lat": 41.955238,
			"type": "Police",
			"address": "21 Dutchess Ave, Millerton, NY 12546"
		}
	},
	{
		"model": "twilio_mgr.location",
		"pk": 335,
		"fields": {
			"name": "Monroe Co Sheriff's - Zone B",
			"lon": -77.6504942,
			"lat": 43.0567111,
			"type": "Police",
			"address": "245 Summit Point Dr, Henrietta, NY 14467"
		}
	},
	{
		"model": "twilio_mgr.location",
		"pk": 336,
		"fields": {
			"name": "Monroe County Sheriff's Department Headquarters",
			"lon": -77.6134058,
			"lat": 43.1525354,
			"type": "Police",
			"address": "130 S Plymouth Ave, Rochester, NY 14614"
		}
	},
	{
		"model": "twilio_mgr.location",
		"pk": 337,
		"fields": {
			"name": "Monroe County Sheriff's Office",
			"lon": -77.5037589,
			"lat": 43.1205256,
			"type": "Police",
			"address": "789 Linden Ave, Rochester, NY 14625"
		}
	},
	{
		"model": "twilio_mgr.location",
		"pk": 338,
		"fields": {
			"name": "Montgomery CO Sheriff's Office",
			"lon": -74.3327551,
			"lat": 42.9337475,
			"type": "Police",
			"address": "200 Clark Dr, Fultonville, NY 12072"
		}
	},
	{
		"model": "twilio_mgr.location",
		"pk": 339,
		"fields": {
			"name": "Monticello Police Dept",
			"lon": -74.6817135,
			"lat": 41.6543168,
			"type": "Police",
			"address": "2 Pleasant St, Monticello, NY 12701"
		}
	},
	{
		"model": "twilio_mgr.location",
		"pk": 340,
		"fields": {
			"name": "Mount Pleasant Police Department",
			"lon": -73.7776937,
			"lat": 41.0963139,
			"type": "Police",
			"address": "1 Town Hall Plaza, Valhalla, NY 10595"
		}
	},
	{
		"model": "twilio_mgr.location",
		"pk": 341,
		"fields": {
			"name": "Mount Vernon Police Department",
			"lon": -73.8387574,
			"lat": 40.9127886,
			"type": "Police",
			"address": "2 Roosevelt Square N, Mt Vernon, NY 10550"
		}
	},
	{
		"model": "twilio_mgr.location",
		"pk": 342,
		"fields": {
			"name": "Mt St Mary's Hospital",
			"lon": -79.0326191,
			"lat": 43.1541101,
			"type": "Police",
			"address": "5300 Military Rd, Lewiston, NY 14092"
		}
	},
	{
		"model": "twilio_mgr.location",
		"pk": 343,
		"fields": {
			"name": "Nassau County Police Department First Precinct",
			"lon": -73.6093282,
			"lat": 40.6508013,
			"type": "Police",
			"address": "900 Merrick Rd, Baldwin, NY 11510"
		}
	},
	{
		"model": "twilio_mgr.location",
		"pk": 344,
		"fields": {
			"name": "Nassau County Police Department Fourth Precinct",
			"lon": -73.6900401,
			"lat": 40.6464574,
			"type": "Police",
			"address": "1699 Broadway, Hewlett, NY 11557"
		}
	},
	{
		"model": "twilio_mgr.location",
		"pk": 345,
		"fields": {
			"name": "Nassau County Police Department",
			"lon": -73.6391398,
			"lat": 40.736645,
			"type": "Police",
			"address": "1490 Franklin Ave, Mineola, NY 11501"
		}
	},
	{
		"model": "twilio_mgr.location",
		"pk": 346,
		"fields": {
			"name": "Nassau County Police Department 5th Precinct",
			"lon": -73.7043373,
			"lat": 40.6874108,
			"type": "Police",
			"address": "1655 Dutch Broadway, Elmont, NY 11003"
		}
	},
	{
		"model": "twilio_mgr.location",
		"pk": 347,
		"fields": {
			"name": "Nassau County Police Department Second Precinct",
			"lon": -73.4861973,
			"lat": 40.8121022,
			"type": "Police",
			"address": "7700 Jericho Turnpike, Woodbury, NY 11797"
		}
	},
	{
		"model": "twilio_mgr.location",
		"pk": 348,
		"fields": {
			"name": "Nassau County Police Department Seventh Precinct",
			"lon": -73.4966221,
			"lat": 40.6649886,
			"type": "Police",
			"address": "3636 Merrick Rd, Seaford, NY 11783"
		}
	},
	{
		"model": "twilio_mgr.location",
		"pk": 349,
		"fields": {
			"name": "Nassau County Police Department Sixth Precinct",
			"lon": -73.7060763,
			"lat": 40.7819833,
			"type": "Police",
			"address": "100 Community Dr, Manhasset, NY 11030"
		}
	},
	{
		"model": "twilio_mgr.location",
		"pk": 350,
		"fields": {
			"name": "Nassau County Police Department Third Precinct",
			"lon": -73.6482401,
			"lat": 40.7556131,
			"type": "Police",
			"address": "214 Hillside Avenue, Williston Park, NY 11596"
		}
	},
	{
		"model": "twilio_mgr.location",
		"pk": 351,
		"fields": {
			"name": "Nassuau Pharmacy Inc.",
			"lon": -73.5720027,
			"lat": 42.5151819,
			"type": "Pharmacy",
			"address": "3541 Old US Rte 20, Nassau, NY 12123"
		}
	},
	{
		"model": "twilio_mgr.location",
		"pk": 352,
		"fields": {
			"name": "New Castle Police Department",
			"lon": -73.7746658,
			"lat": 41.1554437,
			"type": "Police",
			"address": "200 S Greeley Ave, Chappaqua, NY 10514"
		}
	},
	{
		"model": "twilio_mgr.location",
		"pk": 353,
		"fields": {
			"name": "New Hartford Police Department",
			"lon": -75.2787581,
			"lat": 43.0548705,
			"type": "Police",
			"address": "32 Kellogg Rd, New Hartford, NY 13413"
		}
	},
	{
		"model": "twilio_mgr.location",
		"pk": 354,
		"fields": {
			"name": "New Paltz Pharmacy",
			"lon": -74.0784946,
			"lat": 41.7454562,
			"type": "Pharmacy",
			"address": "190 Main St, New Paltz, NY 12561"
		}
	},
	{
		"model": "twilio_mgr.location",
		"pk": 355,
		"fields": {
			"name": "New Rochelle Prescription Center",
			"lon": -73.7834308,
			"lat": 40.9079114,
			"type": "Pharmacy",
			"address": "551 Main St, New Rochelle, NY 10801"
		}
	},
	{
		"model": "twilio_mgr.location",
		"pk": 356,
		"fields": {
			"name": "New York City Police Department",
			"lon": -73.9759337,
			"lat": 40.5796231,
			"type": "Police",
			"address": "2951 W 8th St, Brooklyn, NY 11224"
		}
	},
	{
		"model": "twilio_mgr.location",
		"pk": 357,
		"fields": {
			"name": "New York City Police Department 62nd Precinct",
			"lon": -74.0030971,
			"lat": 40.6024907,
			"type": "Police",
			"address": "1925 Bath Ave, Brooklyn, NY 11214"
		}
	},
	{
		"model": "twilio_mgr.location",
		"pk": 358,
		"fields": {
			"name": "New York City Police Department 63rd Precinct",
			"lon": -73.9416307,
			"lat": 40.6279491,
			"type": "Police",
			"address": "1844 Brooklyn Ave, Brooklyn, NY 11210"
		}
	},
	{
		"model": "twilio_mgr.location",
		"pk": 359,
		"fields": {
			"name": "New York City Police Department 68th Precinct",
			"lon": -74.0225905,
			"lat": 40.6390113,
			"type": "Police",
			"address": "333 65th St, Brooklyn, NY 11220"
		}
	},
	{
		"model": "twilio_mgr.location",
		"pk": 360,
		"fields": {
			"name": "New York City Police Department 70th Precinct",
			"lon": -73.9737171,
			"lat": 40.6303797,
			"type": "Police",
			"address": "154 Lawrence Ave, Brooklyn, NY 11230"
		}
	},
	{
		"model": "twilio_mgr.location",
		"pk": 361,
		"fields": {
			"name": "New York City Police Department 71st Precinct",
			"lon": -73.9478099,
			"lat": 40.6643938,
			"type": "Police",
			"address": "421 Empire Blvd, Brooklyn, NY 11225"
		}
	},
	{
		"model": "twilio_mgr.location",
		"pk": 362,
		"fields": {
			"name": "New York City Police Department 72nd Precinct",
			"lon": -74.0009111,
			"lat": 40.6583506,
			"type": "Police",
			"address": "830 4th Ave, Brooklyn, NY 11232"
		}
	},
	{
		"model": "twilio_mgr.location",
		"pk": 363,
		"fields": {
			"name": "New York Police Department - 120th Precinct",
			"lon": -74.0774297,
			"lat": 40.6446249,
			"type": "Police",
			"address": "78 Richmond Terrace, Staten Island, NY 10301"
		}
	},
	{
		"model": "twilio_mgr.location",
		"pk": 364,
		"fields": {
			"name": "New York Police Department - 121st Precinct",
			"lon": -74.1491992,
			"lat": 40.6236077,
			"type": "Police",
			"address": "970 Richmond Ave, Staten Island, NY 10314"
		}
	},
	{
		"model": "twilio_mgr.location",
		"pk": 365,
		"fields": {
			"name": "New York Police Department - 122nd Precinct",
			"lon": -74.1059766,
			"lat": 40.5738512,
			"type": "Police",
			"address": "2320 Hylan Blvd, Staten Island, NY 10306"
		}
	},
	{
		"model": "twilio_mgr.location",
		"pk": 366,
		"fields": {
			"name": "New York Police Department - 123rd Precinct",
			"lon": -74.2500553,
			"lat": 40.5118544,
			"type": "Police",
			"address": "116 Main St, Staten Island, NY 10307"
		}
	},
	{
		"model": "twilio_mgr.location",
		"pk": 367,
		"fields": {
			"name": "New York State Police",
			"lon": -73.683361,
			"lat": 42.52076,
			"type": "Police",
			"address": "1485 U.S. 9, Castleton-On-Hudson, NY 12033"
		}
	},
	{
		"model": "twilio_mgr.location",
		"pk": 368,
		"fields": {
			"name": "New York State Police",
			"lon": -77.3417477,
			"lat": 42.9573317,
			"type": "Police",
			"address": "1569 Rochester Rd, Farmington, NY 14425"
		}
	},
	{
		"model": "twilio_mgr.location",
		"pk": 369,
		"fields": {
			"name": "New York State Police",
			"lon": -78.1868127,
			"lat": 43.0303286,
			"type": "Police",
			"address": "4525 W Saile Dr, Batavia, NY 14020"
		}
	},
	{
		"model": "twilio_mgr.location",
		"pk": 370,
		"fields": {
			"name": "New York State Police",
			"lon": -74.3614243,
			"lat": 41.447012,
			"type": "Police",
			"address": "55 Crystal Run Rd, Middletown, NY 10941"
		}
	},
	{
		"model": "twilio_mgr.location",
		"pk": 371,
		"fields": {
			"name": "New York State Police",
			"lon": -73.4197567,
			"lat": 40.7250129,
			"type": "Police",
			"address": "7140 Republic Airport, Farmingdale, NY 11735"
		}
	},
	{
		"model": "twilio_mgr.location",
		"pk": 372,
		"fields": {
			"name": "New York State Police",
			"lon": -75.3515588,
			"lat": 42.323008,
			"type": "Police",
			"address": "823 NY-7, Unadilla, NY 13849"
		}
	},
	{
		"model": "twilio_mgr.location",
		"pk": 373,
		"fields": {
			"name": "New York State Police Troop B Ray Brook",
			"lon": -74.0826349,
			"lat": 44.2999094,
			"type": "Police",
			"address": "1097 NY-86, Saranac Lake, NY 12983"
		}
	},
	{
		"model": "twilio_mgr.location",
		"pk": 374,
		"fields": {
			"name": "New York State Police Troop D Oneida",
			"lon": -75.649648,
			"lat": 43.077529,
			"type": "Police",
			"address": "261 Genesee St, Oneida, NY 13421"
		}
	},
	{
		"model": "twilio_mgr.location",
		"pk": 375,
		"fields": {
			"name": "New York State Police Troop G",
			"lon": -73.7810088,
			"lat": 42.7571165,
			"type": "Police",
			"address": "760 Troy Schenectady Rd, Latham, NY 12110"
		}
	},
	{
		"model": "twilio_mgr.location",
		"pk": 376,
		"fields": {
			"name": "New York State Police Troop K Poughkeepsie",
			"lon": -73.7549518,
			"lat": 41.7832961,
			"type": "Police",
			"address": "2541 US-44, Salt Point, NY 12578"
		}
	},
	{
		"model": "twilio_mgr.location",
		"pk": 377,
		"fields": {
			"name": "Newstead Town Hall",
			"lon": -78.503942,
			"lat": 43.012195,
			"type": "Government",
			"address": "5 Clarence Center Rd, Akron, NY 14001"
		}
	},
	{
		"model": "twilio_mgr.location",
		"pk": 378,
		"fields": {
			"name": "Niagara Falls Police Department",
			"lon": -79.0527794,
			"lat": 43.106192,
			"type": "Police",
			"address": "1925 Main St, Niagara Falls, NY 14305"
		}
	},
	{
		"model": "twilio_mgr.location",
		"pk": 379,
		"fields": {
			"name": "Nicholson Pharmacy",
			"lon": -78.0334065,
			"lat": 42.2234153,
			"type": "Pharmacy",
			"address": "36 Schuyler St, Belmont, NY 14813"
		}
	},
	{
		"model": "twilio_mgr.location",
		"pk": 380,
		"fields": {
			"name": "Niskayuna Police Department",
			"lon": -73.8854128,
			"lat": 42.8190983,
			"type": "Police",
			"address": "1 Niskayuna Cir, Niskayuna, NY 12309"
		}
	},
	{
		"model": "twilio_mgr.location",
		"pk": 381,
		"fields": {
			"name": "North Castle Police Department",
			"lon": -73.7130865,
			"lat": 41.124545,
			"type": "Police",
			"address": "15 Bedford Rd #2, Armonk, NY 10504"
		}
	},
	{
		"model": "twilio_mgr.location",
		"pk": 382,
		"fields": {
			"name": "North End Fire Station",
			"lon": -73.7196243,
			"lat": 42.6599928,
			"type": "Government",
			"address": "2 St Francis Pl, Rensselaer, NY 12144"
		}
	},
	{
		"model": "twilio_mgr.location",
		"pk": 383,
		"fields": {
			"name": "North Greenbush Police Department",
			"lon": -73.6804151,
			"lat": 42.6864257,
			"type": "Police",
			"address": "133 Bloomingrove Dr, Troy, NY 12180"
		}
	},
	{
		"model": "twilio_mgr.location",
		"pk": 384,
		"fields": {
			"name": "North Salem Police Department",
			"lon": -73.5905596,
			"lat": 41.328846,
			"type": "Police",
			"address": "66 June Rd, North Salem, NY 10560"
		}
	},
	{
		"model": "twilio_mgr.location",
		"pk": 385,
		"fields": {
			"name": "North Street Pharmacy",
			"lon": -76.989062,
			"lat": 42.8768109,
			"type": "Pharmacy",
			"address": "200 North St #103, Geneva, NY 14456"
		}
	},
	{
		"model": "twilio_mgr.location",
		"pk": 386,
		"fields": {
			"name": "North Tonawanda Police Department",
			"lon": -78.8700085,
			"lat": 43.0295024,
			"type": "Police",
			"address": "216 Payne Ave, North Tonawanda, NY 14120"
		}
	},
	{
		"model": "twilio_mgr.location",
		"pk": 387,
		"fields": {
			"name": "Northern Dutchess Hospital",
			"lon": -73.912876,
			"lat": 41.935072,
			"type": "Hospital",
			"address": "6511 Spring Brook Ave, Rhinebeck, NY 12572"
		}
	},
	{
		"model": "twilio_mgr.location",
		"pk": 388,
		"fields": {
			"name": "Northern Westchester hospital",
			"lon": -73.7245114,
			"lat": 41.1972011,
			"type": "Hospital",
			"address": "400 E Main St, Mt Kisco, NY 10549"
		}
	},
	{
		"model": "twilio_mgr.location",
		"pk": 389,
		"fields": {
			"name": "Northport VA Police Department",
			"lon": -73.3087836,
			"lat": 40.893643,
			"type": "Police",
			"address": "79 Middleville Rd, Northport, NY 11768"
		}
	},
	{
		"model": "twilio_mgr.location",
		"pk": 390,
		"fields": {
			"name": "Northport Village Police Department",
			"lon": -73.3474282,
			"lat": 40.9005613,
			"type": "Police",
			"address": "224 Main St, Northport, NY 11768"
		}
	},
	{
		"model": "twilio_mgr.location",
		"pk": 391,
		"fields": {
			"name": "Norwich Police Department",
			"lon": -75.5223473,
			"lat": 42.5310008,
			"type": "Police",
			"address": "18 E Main St, Norwich, NY 13815"
		}
	},
	{
		"model": "twilio_mgr.location",
		"pk": 392,
		"fields": {
			"name": "NPL Drugs",
			"lon": -73.909436,
			"lat": 40.6172155,
			"type": "Pharmacy",
			"address": "6602 Avenue U, Brooklyn, NY 11234"
		}
	},
	{
		"model": "twilio_mgr.location",
		"pk": 393,
		"fields": {
			"name": "O'Conner Hospital",
			"lon": -74.9164078,
			"lat": 42.2681568,
			"type": "Hospital",
			"address": "460 Andes Rd, Delhi, NY 13753"
		}
	},
	{
		"model": "twilio_mgr.location",
		"pk": 394,
		"fields": {
			"name": "Oak Park Pharmacy",
			"lon": -73.9798576,
			"lat": 40.6605349,
			"type": "Pharmacy",
			"address": "205 Prospect Park West, Brooklyn, NY 11215"
		}
	},
	{
		"model": "twilio_mgr.location",
		"pk": 395,
		"fields": {
			"name": "Ocean Breeze Pharmacy",
			"lon": -74.094069,
			"lat": 40.5847828,
			"type": "Pharmacy",
			"address": "1817 Hylan Blvd, Staten Island, NY 10305"
		}
	},
	{
		"model": "twilio_mgr.location",
		"pk": 396,
		"fields": {
			"name": "Ogden Police Department",
			"lon": -77.8023986,
			"lat": 43.1703969,
			"type": "Police",
			"address": "269 Ogden Center Rd, Spencerport, NY 14559"
		}
	},
	{
		"model": "twilio_mgr.location",
		"pk": 397,
		"fields": {
			"name": "Old Brookville Police Department",
			"lon": -73.5718583,
			"lat": 40.8301163,
			"type": "Police",
			"address": "5701 Northern Blvd, Glen Head, NY 11545"
		}
	},
	{
		"model": "twilio_mgr.location",
		"pk": 398,
		"fields": {
			"name": "Olive Police Department",
			"lon": -74.2290763,
			"lat": 41.9750023,
			"type": "Police",
			"address": "50 Bostock Rd, Shokan, NY 12481"
		}
	},
	{
		"model": "twilio_mgr.location",
		"pk": 399,
		"fields": {
			"name": "Oneida County Sheriff's Department",
			"lon": -75.3767286,
			"lat": 43.1559399,
			"type": "Police",
			"address": "6065 Judd Rd, Oriskany, NY 13424"
		}
	},
	{
		"model": "twilio_mgr.location",
		"pk": 400,
		"fields": {
			"name": "Oneonta Police Station",
			"lon": -75.0643087,
			"lat": 42.4512576,
			"type": "Police",
			"address": "81 Main St #2, Oneonta, NY 13820"
		}
	},
	{
		"model": "twilio_mgr.location",
		"pk": 401,
		"fields": {
			"name": "Onondaga Community College",
			"lon": -76.1967384,
			"lat": 43.0033537,
			"type": "School",
			"address": "4941 Onondaga Rd, Syracuse, NY 13215"
		}
	},
	{
		"model": "twilio_mgr.location",
		"pk": 402,
		"fields": {
			"name": "Ontario County Motor Vehicle Bureau",
			"lon": -77.2804281,
			"lat": 42.8887138,
			"type": "Government",
			"address": "20 Ontario St, Canandaigua, NY 14424"
		}
	},
	{
		"model": "twilio_mgr.location",
		"pk": 403,
		"fields": {
			"name": "Ontario County Public Health",
			"lon": -77.2103646,
			"lat": 42.8834632,
			"type": "Government",
			"address": "3019 County Complex Dr, Canandaigua, NY 14424"
		}
	},
	{
		"model": "twilio_mgr.location",
		"pk": 404,
		"fields": {
			"name": "Ontario County Sheriff's Office",
			"lon": -77.278453,
			"lat": 42.8893905,
			"type": "Police",
			"address": "74 Ontario St, Canandaigua, NY 14424"
		}
	},
	{
		"model": "twilio_mgr.location",
		"pk": 405,
		"fields": {
			"name": "Orange County Sheriff's Office",
			"lon": -74.3594952,
			"lat": 41.4048799,
			"type": "Police",
			"address": "110 Wells Farm Rd, Goshen, NY 10924"
		}
	},
	{
		"model": "twilio_mgr.location",
		"pk": 406,
		"fields": {
			"name": "Orangetown Police Department",
			"lon": -73.9559123,
			"lat": 41.0464984,
			"type": "Police",
			"address": "26 W Orangeburg Rd, Orangeburg, NY 10962"
		}
	},
	{
		"model": "twilio_mgr.location",
		"pk": 407,
		"fields": {
			"name": "Orchard Park Police Department",
			"lon": -78.7434141,
			"lat": 42.7664131,
			"type": "Police",
			"address": "4295 S Buffalo St, Orchard Park, NY 14127"
		}
	},
	{
		"model": "twilio_mgr.location",
		"pk": 408,
		"fields": {
			"name": "Oswego Valley Pharmacy",
			"lon": -76.2987088,
			"lat": 43.2300188,
			"type": "Pharmacy",
			"address": "464 Main St, Phoenix, NY 13135"
		}
	},
	{
		"model": "twilio_mgr.location",
		"pk": 409,
		"fields": {
			"name": "Otsego County Sheriff's Office",
			"lon": -74.950149,
			"lat": 42.652749,
			"type": "Police",
			"address": "172 County Hwy 33 W, Cooperstown, NY 13326"
		}
	},
	{
		"model": "twilio_mgr.location",
		"pk": 410,
		"fields": {
			"name": "Oxford Police Department",
			"lon": -75.5980297,
			"lat": 42.4418725,
			"type": "Police",
			"address": "20 Lafayette Park, Oxford, NY 13830"
		}
	},
	{
		"model": "twilio_mgr.location",
		"pk": 411,
		"fields": {
			"name": "Paak Pharmacy",
			"lon": -73.0074579,
			"lat": 40.791905,
			"type": "Pharmacy",
			"address": "689 Medford Ave, Patchogue, NY 11772"
		}
	},
	{
		"model": "twilio_mgr.location",
		"pk": 412,
		"fields": {
			"name": "Palmer Pharmacy",
			"lon": -76.4983664,
			"lat": 42.4385347,
			"type": "Pharmacy",
			"address": "131 E Green St #2, Ithaca, NY 14850"
		}
	},
	{
		"model": "twilio_mgr.location",
		"pk": 413,
		"fields": {
			"name": "Patterson Town Hall",
			"lon": -73.6046362,
			"lat": 41.5138455,
			"type": "Government",
			"address": "1142 NY-311, Patterson, NY 12563"
		}
	},
	{
		"model": "twilio_mgr.location",
		"pk": 414,
		"fields": {
			"name": "Paul's Pharmacy",
			"lon": -73.518533,
			"lat": 41.214318,
			"type": "Pharmacy",
			"address": "222 Oakridge Commons, South Salem, NY 10590"
		}
	},
	{
		"model": "twilio_mgr.location",
		"pk": 415,
		"fields": {
			"name": "Peconic Bay Medical Center",
			"lon": -72.673557,
			"lat": 40.934406,
			"type": "Hospital",
			"address": "1300 Roanoke Ave, Riverhead, NY 11901"
		}
	},
	{
		"model": "twilio_mgr.location",
		"pk": 416,
		"fields": {
			"name": "Pelham Manor Police Department",
			"lon": -73.8042496,
			"lat": 40.8905915,
			"type": "Police",
			"address": "4 Penfield Pl, Pelham, NY 10803"
		}
	},
	{
		"model": "twilio_mgr.location",
		"pk": 417,
		"fields": {
			"name": "Pelham Police Department",
			"lon": -73.809185,
			"lat": 40.9116969,
			"type": "Police",
			"address": "34 Fifth Ave, Pelham, NY 10803"
		}
	},
	{
		"model": "twilio_mgr.location",
		"pk": 418,
		"fields": {
			"name": "Perry Police Department",
			"lon": -78.0025216,
			"lat": 42.7171476,
			"type": "Police",
			"address": "46 N Main St, Perry, NY 14530"
		}
	},
	{
		"model": "twilio_mgr.location",
		"pk": 419,
		"fields": {
			"name": "Phelps Hospital Northwell Health",
			"lon": -73.8643045,
			"lat": 41.1086081,
			"type": "Hospital",
			"address": "777 N Broadway, Sleepy Hollow, NY 10591"
		}
	},
	{
		"model": "twilio_mgr.location",
		"pk": 420,
		"fields": {
			"name": "Phelps Police Department",
			"lon": -77.059805,
			"lat": 42.9600859,
			"type": "Police",
			"address": "8 Banta St, Phelps, NY 14532"
		}
	},
	{
		"model": "twilio_mgr.location",
		"pk": 421,
		"fields": {
			"name": "Philipstown Town Hall",
			"lon": -73.9502347,
			"lat": 41.4232135,
			"type": "Government",
			"address": "238 Main St, Cold Spring, NY 10516"
		}
	},
	{
		"model": "twilio_mgr.location",
		"pk": 422,
		"fields": {
			"name": "Plainview family Pharmacy",
			"lon": -73.47337,
			"lat": 40.7822141,
			"type": "Pharmacy",
			"address": "142 Manetto Hill Rd, Plainview, NY 11803"
		}
	},
	{
		"model": "twilio_mgr.location",
		"pk": 423,
		"fields": {
			"name": "Pleasantville Police Department",
			"lon": -73.7916575,
			"lat": 41.1338412,
			"type": "Police",
			"address": "80 Wheeler Ave, Pleasantville, NY 10570"
		}
	},
	{
		"model": "twilio_mgr.location",
		"pk": 424,
		"fields": {
			"name": "Police Department",
			"lon": -73.6731879,
			"lat": 42.5516318,
			"type": "Police",
			"address": "1797 Columbia Turnpike, Castleton-On-Hudson, NY 12033"
		}
	},
	{
		"model": "twilio_mgr.location",
		"pk": 425,
		"fields": {
			"name": "Police Department",
			"lon": -76.1829114,
			"lat": 42.637108,
			"type": "Police",
			"address": "43 James St, Homer, NY 13077"
		}
	},
	{
		"model": "twilio_mgr.location",
		"pk": 426,
		"fields": {
			"name": "Police HQ",
			"lon": -75.9845184,
			"lat": 43.0038199,
			"type": "Police",
			"address": "1 Arkie Albanese Ave, Manlius, NY 13104"
		}
	},
	{
		"model": "twilio_mgr.location",
		"pk": 427,
		"fields": {
			"name": "Police HQ",
			"lon": -75.4555018,
			"lat": 43.2136114,
			"type": "Police",
			"address": "301 N James St, Rome, NY 13440"
		}
	},
	{
		"model": "twilio_mgr.location",
		"pk": 428,
		"fields": {
			"name": "Police HQ",
			"lon": -75.2334577,
			"lat": 43.1040825,
			"type": "Police",
			"address": "413 Oriskany St W, Utica, NY 13502"
		}
	},
	{
		"model": "twilio_mgr.location",
		"pk": 429,
		"fields": {
			"name": "Police HQ Drop Box",
			"lon": -76.2484026,
			"lat": 43.0453408,
			"type": "Police",
			"address": "4600 W Genesee St, Syracuse, NY 13219"
		}
	},
	{
		"model": "twilio_mgr.location",
		"pk": 430,
		"fields": {
			"name": "Police Station",
			"lon": -74.074168,
			"lat": 41.731431,
			"type": "Police",
			"address": "83 S Putt Corners Rd, New Paltz, NY 12561"
		}
	},
	{
		"model": "twilio_mgr.location",
		"pk": 431,
		"fields": {
			"name": "Port Chester Police Department",
			"lon": -73.6587833,
			"lat": 41.0067735,
			"type": "Police",
			"address": "350 N Main St #1, Port Chester, NY 10573"
		}
	},
	{
		"model": "twilio_mgr.location",
		"pk": 432,
		"fields": {
			"name": "Port Jervis Police Department",
			"lon": -74.6910433,
			"lat": 41.3750809,
			"type": "Police",
			"address": "20 Hammond St, Port Jervis, NY 12771"
		}
	},
	{
		"model": "twilio_mgr.location",
		"pk": 433,
		"fields": {
			"name": "Port Washington Police Department",
			"lon": -73.6822783,
			"lat": 40.8238125,
			"type": "Police",
			"address": "500 Port Washington Blvd, Port Washington, NY 11050"
		}
	},
	{
		"model": "twilio_mgr.location",
		"pk": 434,
		"fields": {
			"name": "Pound Ridge Police Department",
			"lon": -73.5687758,
			"lat": 41.1986216,
			"type": "Police",
			"address": "177 Westchester Ave, Pound Ridge, NY 10576"
		}
	},
	{
		"model": "twilio_mgr.location",
		"pk": 435,
		"fields": {
			"name": "Prizels Pharmacy",
			"lon": -78.4274088,
			"lat": 42.0906815,
			"type": "Pharmacy",
			"address": "535 Main St, Olean, NY 14760"
		}
	},
	{
		"model": "twilio_mgr.location",
		"pk": 436,
		"fields": {
			"name": "Public Library",
			"lon": -73.9048429,
			"lat": 42.7002964,
			"type": "Government",
			"address": "2228 Western Ave, Guilderland, NY 12084"
		}
	},
	{
		"model": "twilio_mgr.location",
		"pk": 437,
		"fields": {
			"name": "Public Safety Building",
			"lon": -78.2206175,
			"lat": 43.2398186,
			"type": "Police",
			"address": "13925 NY-31, Albion, NY 14411"
		}
	},
	{
		"model": "twilio_mgr.location",
		"pk": 438,
		"fields": {
			"name": "Putnam County Sheriff's Office",
			"lon": -73.675485,
			"lat": 41.425256,
			"type": "Police",
			"address": "3 County Center, Carmel Hamlet, NY 10512"
		}
	},
	{
		"model": "twilio_mgr.location",
		"pk": 439,
		"fields": {
			"name": "Putnam Hospital Center",
			"lon": -73.6637171,
			"lat": 41.3832085,
			"type": "Police",
			"address": "670 Stoneleigh Ave, Carmel Hamlet, NY 10512"
		}
	},
	{
		"model": "twilio_mgr.location",
		"pk": 440,
		"fields": {
			"name": "Putnam Valley Town Hall",
			"lon": -73.8658799,
			"lat": 41.3680399,
			"type": "Government",
			"address": "265 Oscawana Lake Rd, Putnam Valley, NY 10579"
		}
	},
	{
		"model": "twilio_mgr.location",
		"pk": 441,
		"fields": {
			"name": "Quinlan Pharmacy",
			"lon": -77.5917883,
			"lat": 42.5690389,
			"type": "Pharmacy",
			"address": "107 N Main St, Wayland, NY 14572"
		}
	},
	{
		"model": "twilio_mgr.location",
		"pk": 442,
		"fields": {
			"name": "Red Hook Police Department",
			"lon": -73.8766394,
			"lat": 41.9943283,
			"type": "Police",
			"address": "7467 S Broadway, Red Hook, NY 12571"
		}
	},
	{
		"model": "twilio_mgr.location",
		"pk": 443,
		"fields": {
			"name": "Rite Choice Pharmacy",
			"lon": -73.941605,
			"lat": 40.679693,
			"type": "Pharmacy",
			"address": "1484 Fulton St, Brooklyn, NY 11216"
		}
	},
	{
		"model": "twilio_mgr.location",
		"pk": 444,
		"fields": {
			"name": "Riverhead Police Department",
			"lon": -72.6540822,
			"lat": 40.9223504,
			"type": "Police",
			"address": "210 Howell Ave, Riverhead, NY 11901"
		}
	},
	{
		"model": "twilio_mgr.location",
		"pk": 445,
		"fields": {
			"name": "Riverside Remedies RX",
			"lon": -75.058535,
			"lat": 41.766401,
			"type": "Pharmacy",
			"address": "39 Lower Main St, Callicoon, NY 12723"
		}
	},
	{
		"model": "twilio_mgr.location",
		"pk": 446,
		"fields": {
			"name": "RML Pharmacy",
			"lon": -78.8791567,
			"lat": 42.762086,
			"type": "Pharmacy",
			"address": "4481 Lake Shore Rd, Hamburg, NY 14075"
		}
	},
	{
		"model": "twilio_mgr.location",
		"pk": 447,
		"fields": {
			"name": "Rochester General Hospital",
			"lon": -77.5867238,
			"lat": 43.1930205,
			"type": "Hospital",
			"address": "1415 Portland Ave, Rochester, NY 14621"
		}
	},
	{
		"model": "twilio_mgr.location",
		"pk": 448,
		"fields": {
			"name": "Rock Hill Healthmart Pharmacy",
			"lon": -74.5937229,
			"lat": 41.6246247,
			"type": "Pharmacy",
			"address": "253 Rock Hill Dr, Rock Hill, NY 12775"
		}
	},
	{
		"model": "twilio_mgr.location",
		"pk": 449,
		"fields": {
			"name": "Rockland County Sheriff's Office",
			"lon": -73.9390522,
			"lat": 41.0948144,
			"type": "Police",
			"address": "16 Hwy 59 E, Nyack, NY 10960"
		}
	},
	{
		"model": "twilio_mgr.location",
		"pk": 450,
		"fields": {
			"name": "Rockland County Sheriff's Office",
			"lon": -73.9945268,
			"lat": 41.1472495,
			"type": "Police",
			"address": "55 New Hempstead Rd, New City, NY 10956"
		}
	},
	{
		"model": "twilio_mgr.location",
		"pk": 451,
		"fields": {
			"name": "Rockville Centre Police Department",
			"lon": -73.643273,
			"lat": 40.6586656,
			"type": "Police",
			"address": "34 Maple Ave, Rockville Centre, NY 11570"
		}
	},
	{
		"model": "twilio_mgr.location",
		"pk": 452,
		"fields": {
			"name": "Rotterdam Police Department",
			"lon": -73.9909457,
			"lat": 42.7955166,
			"type": "Police",
			"address": "101 Princetown Rd, Rotterdam, NY 12306"
		}
	},
	{
		"model": "twilio_mgr.location",
		"pk": 453,
		"fields": {
			"name": "Rushville Village Offices",
			"lon": -77.226085,
			"lat": 42.760089,
			"type": "Government",
			"address": "1 S Main St, Rushville, NY 14544"
		}
	},
	{
		"model": "twilio_mgr.location",
		"pk": 454,
		"fields": {
			"name": "RX City Pharamcy",
			"lon": -76.5702709,
			"lat": 42.9301519,
			"type": "Pharmacy",
			"address": "161 Genesee St #105, Auburn, NY 13021"
		}
	},
	{
		"model": "twilio_mgr.location",
		"pk": 455,
		"fields": {
			"name": "Rye Brook Police Department",
			"lon": -73.6746371,
			"lat": 41.0346637,
			"type": "Police",
			"address": "938 King St, Rye Brook, NY 10573"
		}
	},
	{
		"model": "twilio_mgr.location",
		"pk": 456,
		"fields": {
			"name": "Rye Police Department",
			"lon": -73.6830981,
			"lat": 40.9852982,
			"type": "Police",
			"address": "21 McCullough Pl, Rye, NY 10580"
		}
	},
	{
		"model": "twilio_mgr.location",
		"pk": 457,
		"fields": {
			"name": "S & M Pharmacy",
			"lon": -73.8250026,
			"lat": 40.7320567,
			"type": "Pharmacy",
			"address": "68-50 Main St, Flushing, NY 11367"
		}
	},
	{
		"model": "twilio_mgr.location",
		"pk": 458,
		"fields": {
			"name": "Sag Harbor Village Police Department",
			"lon": -72.2944597,
			"lat": 41.0006048,
			"type": "Police",
			"address": "70 Division St, Sag Harbor, NY 11963"
		}
	},
	{
		"model": "twilio_mgr.location",
		"pk": 459,
		"fields": {
			"name": "Saint Regis Mohawk Tribal Police",
			"lon": -74.653818,
			"lat": 44.9664553,
			"type": "Police",
			"address": "412 NY-37, Akwesasne, NY 13655"
		}
	},
	{
		"model": "twilio_mgr.location",
		"pk": 460,
		"fields": {
			"name": "Salamanca City Municipal Building",
			"lon": -78.7071162,
			"lat": 42.1574713,
			"type": "Police",
			"address": "225 Wildwood Ave, Salamanca, NY 14779"
		}
	},
	{
		"model": "twilio_mgr.location",
		"pk": 461,
		"fields": {
			"name": "Sands Point Police Department",
			"lon": -73.716996,
			"lat": 40.852953,
			"type": "Police",
			"address": "26 Tibbits Ln, Port Washington, NY 11050"
		}
	},
	{
		"model": "twilio_mgr.location",
		"pk": 462,
		"fields": {
			"name": "Saranac Lake Police Department",
			"lon": -74.1319583,
			"lat": 44.3242147,
			"type": "Police",
			"address": "1 Main St, Saranac Lake, NY 12983"
		}
	},
	{
		"model": "twilio_mgr.location",
		"pk": 463,
		"fields": {
			"name": "Saratoga County Sheriff's Office",
			"lon": -73.8724835,
			"lat": 43.0203164,
			"type": "Police",
			"address": "6010 County Farm Rd, Ballston Spa, NY 12020"
		}
	},
	{
		"model": "twilio_mgr.location",
		"pk": 464,
		"fields": {
			"name": "Saratoga Police Department",
			"lon": -73.7842376,
			"lat": 43.0833295,
			"type": "Police",
			"address": "474 Broadway, Saratoga Springs, NY 12866"
		}
	},
	{
		"model": "twilio_mgr.location",
		"pk": 465,
		"fields": {
			"name": "Saratoga Springs Police Department",
			"lon": -73.7840416,
			"lat": 43.0832593,
			"type": "Police",
			"address": "5 Lake Ave, Saratoga Springs, NY 12866"
		}
	},
	{
		"model": "twilio_mgr.location",
		"pk": 466,
		"fields": {
			"name": "Saugerties Police Department",
			"lon": -73.9588511,
			"lat": 42.0814994,
			"type": "Police",
			"address": "4 High St, Saugerties, NY 12477"
		}
	},
	{
		"model": "twilio_mgr.location",
		"pk": 467,
		"fields": {
			"name": "Savall Drug",
			"lon": -73.5576316,
			"lat": 40.6763833,
			"type": "Pharmacy",
			"address": "393 Merrick Ave N, Merrick, NY 11566"
		}
	},
	{
		"model": "twilio_mgr.location",
		"pk": 468,
		"fields": {
			"name": "Scarsdale Police Department",
			"lon": -73.7654257,
			"lat": 40.9906692,
			"type": "Police",
			"address": "25 Ramsey Rd, Scarsdale, NY 10583"
		}
	},
	{
		"model": "twilio_mgr.location",
		"pk": 469,
		"fields": {
			"name": "Scarsdale Police Department",
			"lon": -73.7848786,
			"lat": 41.0051478,
			"type": "Police",
			"address": "50 Tompkins Rd, Scarsdale, NY 10583"
		}
	},
	{
		"model": "twilio_mgr.location",
		"pk": 470,
		"fields": {
			"name": "Schenectady County Sheriff's Office",
			"lon": -73.9399962,
			"lat": 42.8099415,
			"type": "Police",
			"address": "320 Veeder Ave, Schenectady, NY 12307"
		}
	},
	{
		"model": "twilio_mgr.location",
		"pk": 471,
		"fields": {
			"name": "Schenectady County Sheriff's Substation",
			"lon": -74.031243,
			"lat": 42.7804982,
			"type": "Police",
			"address": "130 Princetown Plaza, Schenectady, NY 12306"
		}
	},
	{
		"model": "twilio_mgr.location",
		"pk": 472,
		"fields": {
			"name": "Schenectady Police Department",
			"lon": -73.9369924,
			"lat": 42.8145873,
			"type": "Police",
			"address": "531 Liberty St, Schenectady, NY 12305"
		}
	},
	{
		"model": "twilio_mgr.location",
		"pk": 473,
		"fields": {
			"name": "Schuyler County Human Services Complex",
			"lon": -76.8412703,
			"lat": 42.3409968,
			"type": "Police",
			"address": "323 Owego St, Montour Falls, NY 14865"
		}
	},
	{
		"model": "twilio_mgr.location",
		"pk": 474,
		"fields": {
			"name": "Schuyler County Sheriff / Odessa Fire Department",
			"lon": -76.7909279,
			"lat": 42.337129,
			"type": "Police",
			"address": "300 Main St, Odessa, NY 14869"
		}
	},
	{
		"model": "twilio_mgr.location",
		"pk": 475,
		"fields": {
			"name": "Schuyler County Sheriff's Office",
			"lon": -76.8707899,
			"lat": 42.3768833,
			"type": "Police",
			"address": "106 10th St, Watkins Glen, NY 14891"
		}
	},
	{
		"model": "twilio_mgr.location",
		"pk": 476,
		"fields": {
			"name": "Scotia Police Department",
			"lon": -73.9638118,
			"lat": 42.8268917,
			"type": "Police",
			"address": "4 North Ten Broeck Street, Scotia, NY 12302"
		}
	},
	{
		"model": "twilio_mgr.location",
		"pk": 477,
		"fields": {
			"name": "Seneca County Sheriff's Office",
			"lon": -76.8249803,
			"lat": 42.7209826,
			"type": "Police",
			"address": "6150 NY-96, Romulus, NY 14541"
		}
	},
	{
		"model": "twilio_mgr.location",
		"pk": 478,
		"fields": {
			"name": "Setauket Fire House",
			"lon": -73.1132981,
			"lat": 40.8968929,
			"type": "Police",
			"address": "394 Nicolls Rd, Setauket- East Setauket, NY 11733"
		}
	},
	{
		"model": "twilio_mgr.location",
		"pk": 479,
		"fields": {
			"name": "Shadaken Police Dept",
			"lon": -74.3165419,
			"lat": 42.0844325,
			"type": "Police",
			"address": "58 NY-214, Phoenicia, NY 12464"
		}
	},
	{
		"model": "twilio_mgr.location",
		"pk": 480,
		"fields": {
			"name": "Shawangunk Town Police Department",
			"lon": -74.180924,
			"lat": 41.604143,
			"type": "Police",
			"address": "13 Bona Ventura Ave, Wallkill, NY 12589"
		}
	},
	{
		"model": "twilio_mgr.location",
		"pk": 481,
		"fields": {
			"name": "Shelter Island Police Department",
			"lon": -72.3385821,
			"lat": 41.0695405,
			"type": "Police",
			"address": "44 N Ferry Rd, Shelter Island, NY 11964"
		}
	},
	{
		"model": "twilio_mgr.location",
		"pk": 482,
		"fields": {
			"name": "Sheriff's HQ",
			"lon": -76.4668825,
			"lat": 42.4927791,
			"type": "Police",
			"address": "779 Warren Rd, Ithaca, NY 14850"
		}
	},
	{
		"model": "twilio_mgr.location",
		"pk": 483,
		"fields": {
			"name": "Sherrill Police Department",
			"lon": -75.5994344,
			"lat": 43.0722949,
			"type": "Police",
			"address": "373 Sherrill Rd, Sherrill, NY 13461"
		}
	},
	{
		"model": "twilio_mgr.location",
		"pk": 484,
		"fields": {
			"name": "Sidney Police Department",
			"lon": -75.390539,
			"lat": 42.3171807,
			"type": "Police",
			"address": "21 Liberty St, Sidney, NY 13838"
		}
	},
	{
		"model": "twilio_mgr.location",
		"pk": 485,
		"fields": {
			"name": "Silver Creek Village Hall",
			"lon": -79.1695355,
			"lat": 42.5452377,
			"type": "Government",
			"address": "172 Central Ave, Silver Creek, NY 14136"
		}
	},
	{
		"model": "twilio_mgr.location",
		"pk": 486,
		"fields": {
			"name": "Sisters of Charity Hospital, St. Joseph's Campus",
			"lon": -78.7823226,
			"lat": 42.9143415,
			"type": "Hospital",
			"address": "2605 Harlem Rd, Cheektowaga, NY 14225"
		}
	},
	{
		"model": "twilio_mgr.location",
		"pk": 487,
		"fields": {
			"name": "Slaterville Fire Station",
			"lon": -76.3490308,
			"lat": 42.3936544,
			"type": "Police",
			"address": "2681 Slaterville Rd, Slaterville Springs, NY 14881"
		}
	},
	{
		"model": "twilio_mgr.location",
		"pk": 488,
		"fields": {
			"name": "Sleepyhollow Police Department",
			"lon": -73.8594878,
			"lat": 41.0849525,
			"type": "Police",
			"address": "28 Beekman Ave, Sleepy Hollow, NY 10591"
		}
	},
	{
		"model": "twilio_mgr.location",
		"pk": 489,
		"fields": {
			"name": "Smithtown Public Safety",
			"lon": -73.1962886,
			"lat": 40.852974,
			"type": "Police",
			"address": "65 Maple Ave, Smithtown, NY 11787"
		}
	},
	{
		"model": "twilio_mgr.location",
		"pk": 490,
		"fields": {
			"name": "Somers Police Department",
			"lon": -73.7169133,
			"lat": 41.318144,
			"type": "Police",
			"address": "139 Primrose St, Somers, NY 10589"
		}
	},
	{
		"model": "twilio_mgr.location",
		"pk": 491,
		"fields": {
			"name": "Somers Police Department",
			"lon": -73.715512,
			"lat": 41.3070316,
			"type": "Police",
			"address": "98 Primrose St, Katonah, NY 10536"
		}
	},
	{
		"model": "twilio_mgr.location",
		"pk": 492,
		"fields": {
			"name": "Southampton Town Police Department",
			"lon": -72.538956,
			"lat": 40.886659,
			"type": "Police",
			"address": "110 Old Riverhead Rd, Hampton Bays, NY 11946"
		}
	},
	{
		"model": "twilio_mgr.location",
		"pk": 493,
		"fields": {
			"name": "Southold Police Department",
			"lon": -72.4563728,
			"lat": 41.0397194,
			"type": "Police",
			"address": "41405 NY-25, Peconic, NY 11958"
		}
	},
	{
		"model": "twilio_mgr.location",
		"pk": 494,
		"fields": {
			"name": "Southside Hospital",
			"lon": -73.241505,
			"lat": 40.7257613,
			"type": "Hospital",
			"address": "301 E Main St, Bay Shore, NY 11706"
		}
	},
	{
		"model": "twilio_mgr.location",
		"pk": 495,
		"fields": {
			"name": "Southside Pharmacy",
			"lon": -79.2279091,
			"lat": 42.079808,
			"type": "Police",
			"address": "766 Foote Ave, Jamestown, NY 14701"
		}
	},
	{
		"model": "twilio_mgr.location",
		"pk": 496,
		"fields": {
			"name": "St. George Pharmacy",
			"lon": -74.0773914,
			"lat": 40.6438301,
			"type": "Pharmacy",
			"address": "99 Stuyvesant Pl, Staten Island, NY 10301"
		}
	},
	{
		"model": "twilio_mgr.location",
		"pk": 497,
		"fields": {
			"name": "St. Lawrence County Sheriff's Office",
			"lon": -75.1696157,
			"lat": 44.5986572,
			"type": "Police",
			"address": "48 Court St, Canton, NY 13617"
		}
	},
	{
		"model": "twilio_mgr.location",
		"pk": 498,
		"fields": {
			"name": "Sterling Pharmacy",
			"lon": -73.7722275,
			"lat": 40.7664768,
			"type": "Pharmacy",
			"address": "38-01 Bell Blvd, Bayside, NY 11361"
		}
	},
	{
		"model": "twilio_mgr.location",
		"pk": 499,
		"fields": {
			"name": "Steuben County Clerk",
			"lon": -77.3167746,
			"lat": 42.3329678,
			"type": "Government",
			"address": "3 East Pulteney Square, Bath, NY 14810"
		}
	},
	{
		"model": "twilio_mgr.location",
		"pk": 500,
		"fields": {
			"name": "Steuben County Sheriff's Office",
			"lon": -77.29539,
			"lat": 42.350548,
			"type": "Police",
			"address": "6979/7007 Rumsey Street Extension, Bath, NY 14810"
		}
	},
	{
		"model": "twilio_mgr.location",
		"pk": 501,
		"fields": {
			"name": "Stone's Pharmacy",
			"lon": -73.8411252,
			"lat": 43.3167686,
			"type": "Pharmacy",
			"address": "1 Main St, Lake Luzerne, NY 12846"
		}
	},
	{
		"model": "twilio_mgr.location",
		"pk": 502,
		"fields": {
			"name": "Strong Memorial Hospital Pharmacy",
			"lon": -77.624972,
			"lat": 43.1231147,
			"type": "Hospital",
			"address": "601 Elmwood Ave, Rochester, NY 14642"
		}
	},
	{
		"model": "twilio_mgr.location",
		"pk": 503,
		"fields": {
			"name": "Strong Ties Community Support Clinic Pharmacy",
			"lon": -77.6332079,
			"lat": 43.0998636,
			"type": "Pharmacy",
			"address": "2613 W Henrietta Rd, Rochester, NY 14623"
		}
	},
	{
		"model": "twilio_mgr.location",
		"pk": 504,
		"fields": {
			"name": "Suffolk County Police Department - Fifth Precinct",
			"lon": -73.0256308,
			"lat": 40.7684241,
			"type": "Police",
			"address": "125 Waverly Ave, Patchogue, NY 11772"
		}
	},
	{
		"model": "twilio_mgr.location",
		"pk": 505,
		"fields": {
			"name": "Suffolk County Police Department - First Precinct",
			"lon": -73.3712778,
			"lat": 40.7129129,
			"type": "Police",
			"address": "555 Babylon Farmingdale Rd, West Babylon, NY 11704"
		}
	},
	{
		"model": "twilio_mgr.location",
		"pk": 506,
		"fields": {
			"name": "Suffolk County Police Department - Fourth Precinct",
			"lon": -73.1963532,
			"lat": 40.8174565,
			"type": "Police",
			"address": "727 Veterans Memorial Hwy, Hauppauge, NY 11788"
		}
	},
	{
		"model": "twilio_mgr.location",
		"pk": 507,
		"fields": {
			"name": "Suffolk County Police Department - Second Precinct",
			"lon": -73.3636395,
			"lat": 40.8346897,
			"type": "Police",
			"address": "1071 Park Ave, Huntington, NY 11743"
		}
	},
	{
		"model": "twilio_mgr.location",
		"pk": 508,
		"fields": {
			"name": "Suffolk County Police Department - Seventh Precinct",
			"lon": -72.8861982,
			"lat": 40.8406024,
			"type": "Police",
			"address": "1491 William Floyd Pkwy, Shirley, NY 11967"
		}
	},
	{
		"model": "twilio_mgr.location",
		"pk": 509,
		"fields": {
			"name": "Suffolk County Police Department - Sixth Precinct",
			"lon": -73.0992168,
			"lat": 40.8947928,
			"type": "Police",
			"address": "25th St, Stony Brook, NY 11790"
		}
	},
	{
		"model": "twilio_mgr.location",
		"pk": 510,
		"fields": {
			"name": "Suffolk County Police Department - Sixth Precinct",
			"lon": -73.0249389,
			"lat": 40.8665875,
			"type": "Police",
			"address": "400 Middle Country Rd, Selden, NY 11784"
		}
	},
	{
		"model": "twilio_mgr.location",
		"pk": 511,
		"fields": {
			"name": "Suffolk County Police Department - Third Precinct",
			"lon": -73.263129,
			"lat": 40.7583699,
			"type": "Police",
			"address": "1630 5th Ave, Bay Shore, NY 11706"
		}
	},
	{
		"model": "twilio_mgr.location",
		"pk": 512,
		"fields": {
			"name": "Summit Park Pharmacy",
			"lon": -78.9069748,
			"lat": 43.0918514,
			"type": "Pharmacy",
			"address": "2578 Niagara Falls Blvd, Niagara Falls, NY 14304"
		}
	},
	{
		"model": "twilio_mgr.location",
		"pk": 513,
		"fields": {
			"name": "SUNY Cortland University Police",
			"lon": -76.1949015,
			"lat": 42.5934875,
			"type": "Police",
			"address": "4 Pashley Dr, Cortland, NY 13045"
		}
	},
	{
		"model": "twilio_mgr.location",
		"pk": 514,
		"fields": {
			"name": "SUNY New Paltz University Police Department",
			"lon": -74.0851655,
			"lat": 41.7390054,
			"type": "Police",
			"address": "1 Hawk Dr, New Paltz, NY 12561"
		}
	},
	{
		"model": "twilio_mgr.location",
		"pk": 515,
		"fields": {
			"name": "SUNY Old Westbury",
			"lon": -73.5799522,
			"lat": 40.7804509,
			"type": "Police",
			"address": "223 Store Hill Rd, Old Westbury, NY 11568"
		}
	},
	{
		"model": "twilio_mgr.location",
		"pk": 516,
		"fields": {
			"name": "Super Health Pharmacy",
			"lon": -74.2152896,
			"lat": 40.5221133,
			"type": "Pharmacy",
			"address": "6400 Amboy Rd, Staten Island, NY 10309"
		}
	},
	{
		"model": "twilio_mgr.location",
		"pk": 517,
		"fields": {
			"name": "Syracuse Police Department",
			"lon": -76.1469493,
			"lat": 43.0467898,
			"type": "Police",
			"address": "511 S State St, Syracuse, NY 13202"
		}
	},
	{
		"model": "twilio_mgr.location",
		"pk": 518,
		"fields": {
			"name": "T.C. Dept of Probation",
			"lon": -76.5031156,
			"lat": 42.4397605,
			"type": "Police",
			"address": "320 W State St, Ithaca, NY 14850"
		}
	},
	{
		"model": "twilio_mgr.location",
		"pk": 519,
		"fields": {
			"name": "Taconic Pharmacy",
			"lon": -73.8096958,
			"lat": 41.3325647,
			"type": "Pharmacy",
			"address": "3659 Lee Road, Yorktown Heights, NY 10598"
		}
	},
	{
		"model": "twilio_mgr.location",
		"pk": 520,
		"fields": {
			"name": "Tarrytown Police Dept",
			"lon": -73.8638675,
			"lat": 41.0766407,
			"type": "Police",
			"address": "1 Depot Plaza, Tarrytown, NY 10591"
		}
	},
	{
		"model": "twilio_mgr.location",
		"pk": 521,
		"fields": {
			"name": "TC3 Campus Police (Tomp Cort Comm College)",
			"lon": -76.2865588,
			"lat": 42.5026424,
			"type": "Police",
			"address": "170 North Street, Dryden, NY 13053"
		}
	},
	{
		"model": "twilio_mgr.location",
		"pk": 522,
		"fields": {
			"name": "The Medicine Shoppe",
			"lon": -74.7249738,
			"lat": 41.7844587,
			"type": "Pharmacy",
			"address": "1987 NY-52, Liberty, NY 12754"
		}
	},
	{
		"model": "twilio_mgr.location",
		"pk": 523,
		"fields": {
			"name": "The Medicine Shoppe",
			"lon": -77.2843074,
			"lat": 42.8875138,
			"type": "Pharmacy",
			"address": "66 West Ave, Canandaigua, NY 14424"
		}
	},
	{
		"model": "twilio_mgr.location",
		"pk": 524,
		"fields": {
			"name": "The Medicine Shoppe Pharmacy of Liberty",
			"lon": -74.7249011,
			"lat": 41.7844228,
			"type": "Pharmacy",
			"address": "1987 State Route 52 Colonial Square, Liberty, NY 12754"
		}
	},
	{
		"model": "twilio_mgr.location",
		"pk": 525,
		"fields": {
			"name": "The Pharmacy at Trillium Health",
			"lon": -77.5993682,
			"lat": 43.1491263,
			"type": "Pharmacy",
			"address": "259 Monroe Ave, Rochester, NY 14607"
		}
	},
	{
		"model": "twilio_mgr.location",
		"pk": 526,
		"fields": {
			"name": "Ticonderoga Police Department",
			"lon": -73.4245919,
			"lat": 43.8520356,
			"type": "Police",
			"address": "135 Burgoyne Rd, Ticonderoga, NY 12883"
		}
	},
	{
		"model": "twilio_mgr.location",
		"pk": 527,
		"fields": {
			"name": "Tile Pharmacy",
			"lon": -78.7612147,
			"lat": 42.9450389,
			"type": "Pharmacy",
			"address": "1031 Cleveland Dr, Cheektowaga, NY 14225"
		}
	},
	{
		"model": "twilio_mgr.location",
		"pk": 528,
		"fields": {
			"name": "Tioga County Sheriff's Office",
			"lon": -76.2658065,
			"lat": 42.1421101,
			"type": "Police",
			"address": "103 Corporate Dr, Owego, NY 13827"
		}
	},
	{
		"model": "twilio_mgr.location",
		"pk": 529,
		"fields": {
			"name": "Tompkins Cortland Community College Campus Police",
			"lon": -76.3115253,
			"lat": 42.4899264,
			"type": "School",
			"address": "117 W Main St, Dryden, NY 13053"
		}
	},
	{
		"model": "twilio_mgr.location",
		"pk": 530,
		"fields": {
			"name": "Tompkins Cortland Community College Police Department",
			"lon": -76.3105052,
			"lat": 42.5003364,
			"type": "School",
			"address": "118 Freeville Rd, Dryden, NY 13053"
		}
	},
	{
		"model": "twilio_mgr.location",
		"pk": 531,
		"fields": {
			"name": "Tops Markets",
			"lon": -79.243529,
			"lat": 42.1097415,
			"type": "Pharmacy",
			"address": "2000 Washington St, Jamestown, NY 14701"
		}
	},
	{
		"model": "twilio_mgr.location",
		"pk": 532,
		"fields": {
			"name": "Tops Markets",
			"lon": -78.6837337,
			"lat": 42.8998539,
			"type": "Pharmacy",
			"address": "5175 Broadway, Depew, NY 14043"
		}
	},
	{
		"model": "twilio_mgr.location",
		"pk": 533,
		"fields": {
			"name": "Town of Cicero Police Department",
			"lon": -76.1152384,
			"lat": 43.1692417,
			"type": "Police",
			"address": "8236 Brewerton Rd, Cicero, NY 13039"
		}
	},
	{
		"model": "twilio_mgr.location",
		"pk": 534,
		"fields": {
			"name": "Town of Hamburg Police Department",
			"lon": -78.824548,
			"lat": 42.7290198,
			"type": "Police",
			"address": "6100 South Park Ave, Hamburg, NY 14075"
		}
	},
	{
		"model": "twilio_mgr.location",
		"pk": 535,
		"fields": {
			"name": "Town of Hyde Park Police Department",
			"lon": -73.9104083,
			"lat": 41.7894808,
			"type": "Police",
			"address": "3 Cardinal Rd, Hyde Park, NY 12538"
		}
	},
	{
		"model": "twilio_mgr.location",
		"pk": 536,
		"fields": {
			"name": "Town of Lloyd Police Department",
			"lon": -73.9642987,
			"lat": 41.716986,
			"type": "Police",
			"address": "25 Milton Ave, Highland, NY 12528"
		}
	},
	{
		"model": "twilio_mgr.location",
		"pk": 537,
		"fields": {
			"name": "Town of Mamaroneck Police Department",
			"lon": -73.7470462,
			"lat": 40.933901,
			"type": "Police",
			"address": "740 W Boston Post Rd #1, Mamaroneck, NY 10543"
		}
	},
	{
		"model": "twilio_mgr.location",
		"pk": 538,
		"fields": {
			"name": "Town of New Windsor Police Department",
			"lon": -74.0628274,
			"lat": 41.4824513,
			"type": "Police",
			"address": "555 Union Ave, New Windsor, NY 12553"
		}
	},
	{
		"model": "twilio_mgr.location",
		"pk": 539,
		"fields": {
			"name": "Town of North Caste Police Department",
			"lon": -73.7129848,
			"lat": 41.1244934,
			"type": "Police",
			"address": "15 Bedford Rd, Armonk, NY 10504"
		}
	},
	{
		"model": "twilio_mgr.location",
		"pk": 540,
		"fields": {
			"name": "Town of Poughkeepsie Police Department",
			"lon": -73.8897798,
			"lat": 41.7052525,
			"type": "Police",
			"address": "19 Tucker Dr, Arlington, NY 12603"
		}
	},
	{
		"model": "twilio_mgr.location",
		"pk": 541,
		"fields": {
			"name": "Town of Seneca Falls Police Department",
			"lon": -76.7982137,
			"lat": 42.901113,
			"type": "Police",
			"address": "130 Ovid St, Seneca Falls, NY 13148"
		}
	},
	{
		"model": "twilio_mgr.location",
		"pk": 542,
		"fields": {
			"name": "Town of Ulster Police Department",
			"lon": -74.002515,
			"lat": 41.9765591,
			"type": "Police",
			"address": "1 Town Hall Rd, Lake Katrine, NY 12449"
		}
	},
	{
		"model": "twilio_mgr.location",
		"pk": 543,
		"fields": {
			"name": "Town of Wallkill Police Department",
			"lon": -74.374967,
			"lat": 41.4669178,
			"type": "Police",
			"address": "99 Tower Dr, Middletown, NY 10941"
		}
	},
	{
		"model": "twilio_mgr.location",
		"pk": 544,
		"fields": {
			"name": "Town of Warwick Police Department",
			"lon": -74.3367293,
			"lat": 41.2695812,
			"type": "Police",
			"address": "132 Kings Hwy, Warwick, NY 10990"
		}
	},
	{
		"model": "twilio_mgr.location",
		"pk": 545,
		"fields": {
			"name": "Town of Waterford Police Department",
			"lon": -73.6785321,
			"lat": 42.7904424,
			"type": "Police",
			"address": "65 Broad St, Waterford, NY 12188"
		}
	},
	{
		"model": "twilio_mgr.location",
		"pk": 546,
		"fields": {
			"name": "Town of Webb Police Department",
			"lon": -74.970628,
			"lat": 43.71242,
			"type": "Police",
			"address": "3139 NY-28, Old Forge, NY 13420"
		}
	},
	{
		"model": "twilio_mgr.location",
		"pk": 547,
		"fields": {
			"name": "Town of Woodbury Police Department",
			"lon": -74.1252032,
			"lat": 41.3389369,
			"type": "Police",
			"address": "386 NY-32, Central Valley, NY 10917"
		}
	},
	{
		"model": "twilio_mgr.location",
		"pk": 548,
		"fields": {
			"name": "Towne Centre Pharmacy",
			"lon": -73.6686588,
			"lat": 41.5981369,
			"type": "Pharmacy",
			"address": "2540 Old Rte 55, Poughquag, NY 12570"
		}
	},
	{
		"model": "twilio_mgr.location",
		"pk": 549,
		"fields": {
			"name": "Transcript Pharmacy of New York",
			"lon": -73.4604669,
			"lat": 40.7312501,
			"type": "Pharmacy",
			"address": "87 Hempstead Turnpike, Farmingdale, NY 11735"
		}
	},
	{
		"model": "twilio_mgr.location",
		"pk": 550,
		"fields": {
			"name": "Trenton Town Hall",
			"lon": -75.185125,
			"lat": 43.2741533,
			"type": "Government",
			"address": "8520 Old Poland Rd, Barneveld, NY 13304"
		}
	},
	{
		"model": "twilio_mgr.location",
		"pk": 551,
		"fields": {
			"name": "Trotta's West Street Pharmacy",
			"lon": -73.7228252,
			"lat": 40.9620509,
			"type": "Pharmacy",
			"address": "15 Halstead Ave, Mamaroneck, NY 10543"
		}
	},
	{
		"model": "twilio_mgr.location",
		"pk": 552,
		"fields": {
			"name": "Trumansburg Police Department",
			"lon": -76.6608219,
			"lat": 42.5413822,
			"type": "Police",
			"address": "5 Elm St, Trumansburg, NY 14886"
		}
	},
	{
		"model": "twilio_mgr.location",
		"pk": 553,
		"fields": {
			"name": "Tuckahoe Police Department",
			"lon": -73.8266975,
			"lat": 40.9505291,
			"type": "Police",
			"address": "65 Main St, Tuckahoe, NY 10707"
		}
	},
	{
		"model": "twilio_mgr.location",
		"pk": 554,
		"fields": {
			"name": "Tyrone Fire Department",
			"lon": -77.0552222,
			"lat": 42.4041845,
			"type": "Police",
			"address": "3600 NY-226, Watkins Glen, NY 14891"
		}
	},
	{
		"model": "twilio_mgr.location",
		"pk": 555,
		"fields": {
			"name": "U & I Pharmacy",
			"lon": -75.5405799,
			"lat": 43.0788676,
			"type": "Pharmacy",
			"address": "5236 W Seneca St, Vernon, NY 13476"
		}
	},
	{
		"model": "twilio_mgr.location",
		"pk": 556,
		"fields": {
			"name": "Ulster County Sheriff",
			"lon": -73.9803385,
			"lat": 41.9179234,
			"type": "Police",
			"address": "284 Broadway, Port Ewen, NY 12466"
		}
	},
	{
		"model": "twilio_mgr.location",
		"pk": 557,
		"fields": {
			"name": "Ulster County Sheriff's Department",
			"lon": -74.015976,
			"lat": 41.912252,
			"type": "Police",
			"address": "380 Boulevard, Kingston, NY 12401"
		}
	},
	{
		"model": "twilio_mgr.location",
		"pk": 558,
		"fields": {
			"name": "Ulster County Sheriff's Department Shandaken Sub-Station",
			"lon": -74.3699533,
			"lat": 42.1162537,
			"type": "Police",
			"address": "7209 NY-28, Shandaken, NY 12480"
		}
	},
	{
		"model": "twilio_mgr.location",
		"pk": 559,
		"fields": {
			"name": "Ulster County Sheriff's Department Wallkill Sub-Station",
			"lon": -74.1822533,
			"lat": 41.5998742,
			"type": "Police",
			"address": "3063 NY-208, Wallkill, NY 12589"
		}
	},
	{
		"model": "twilio_mgr.location",
		"pk": 560,
		"fields": {
			"name": "University at Buffalo University Police",
			"lon": -78.780604,
			"lat": 42.9986,
			"type": "Police",
			"address": "Bissell Hall, Buffalo, NY 14228"
		}
	},
	{
		"model": "twilio_mgr.location",
		"pk": 561,
		"fields": {
			"name": "US Army Conner Troop Medical Clinic",
			"lon": -75.8116772,
			"lat": 44.0598656,
			"type": "Government",
			"address": "11050 Mt Belvedere Blvd, Fort Drum, NY 13602"
		}
	},
	{
		"model": "twilio_mgr.location",
		"pk": 562,
		"fields": {
			"name": "US Army Keller Community Hospital",
			"lon": -73.9773423,
			"lat": 41.4017759,
			"type": "Hospital",
			"address": "900 Washington Rd, West Point, NY 10996"
		}
	},
	{
		"model": "twilio_mgr.location",
		"pk": 563,
		"fields": {
			"name": "US Army Malogne Cadet Health Clinic",
			"lon": -73.9625263,
			"lat": 41.3767619,
			"type": "Government",
			"address": "2 Thayer Rd, West Point, NY 10996"
		}
	},
	{
		"model": "twilio_mgr.location",
		"pk": 564,
		"fields": {
			"name": "Vassar Brothers Medical Hospital",
			"lon": -73.9361727,
			"lat": 41.6937994,
			"type": "Police",
			"address": "45 Reade Pl, Poughkeepsie, NY 12601"
		}
	},
	{
		"model": "twilio_mgr.location",
		"pk": 565,
		"fields": {
			"name": "Vestal Fire Station 4",
			"lon": -75.9933547,
			"lat": 42.0970976,
			"type": "Police",
			"address": "3341 Vestal Pkwy E, Vestal, NY 13850"
		}
	},
	{
		"model": "twilio_mgr.location",
		"pk": 566,
		"fields": {
			"name": "Vic Vena Pharmacy",
			"lon": -78.4452644,
			"lat": 42.0779279,
			"type": "Pharmacy",
			"address": "1322 W State St, Olean, NY 14760"
		}
	},
	{
		"model": "twilio_mgr.location",
		"pk": 567,
		"fields": {
			"name": "Victory RX",
			"lon": -74.1025584,
			"lat": 40.6309404,
			"type": "Pharmacy",
			"address": "395 Forest Ave, Staten Island, NY 10301"
		}
	},
	{
		"model": "twilio_mgr.location",
		"pk": 568,
		"fields": {
			"name": "Village of Bainbridge Town Hall",
			"lon": -75.4798462,
			"lat": 42.2938902,
			"type": "Government",
			"address": "15 N Main St., Bainbridge, NY 13733"
		}
	},
	{
		"model": "twilio_mgr.location",
		"pk": 569,
		"fields": {
			"name": "Village of Chester Police Department",
			"lon": -74.2721491,
			"lat": 41.3620734,
			"type": "Police",
			"address": "45 Main St, Chester, NY 10918"
		}
	},
	{
		"model": "twilio_mgr.location",
		"pk": 570,
		"fields": {
			"name": "Village of Dobbs Ferry",
			"lon": -73.8746634,
			"lat": 41.0150434,
			"type": "Police",
			"address": "112 Main St, Dobbs Ferry, NY 10522"
		}
	},
	{
		"model": "twilio_mgr.location",
		"pk": 571,
		"fields": {
			"name": "Village of Ellenville Police",
			"lon": -74.3959954,
			"lat": 41.7182002,
			"type": "Police",
			"address": "2 Elting Ct, Ellenville, NY 12428"
		}
	},
	{
		"model": "twilio_mgr.location",
		"pk": 572,
		"fields": {
			"name": "Village of Greenwood Lake Police Department",
			"lon": -74.2929715,
			"lat": 41.2218731,
			"type": "Police",
			"address": "16 Church St, Greenwood Lake, NY 10925"
		}
	},
	{
		"model": "twilio_mgr.location",
		"pk": 573,
		"fields": {
			"name": "Village of Monroe Police Department",
			"lon": -74.1868855,
			"lat": 41.3277116,
			"type": "Police",
			"address": "104 Stage Rd, Monroe, NY 10950"
		}
	},
	{
		"model": "twilio_mgr.location",
		"pk": 574,
		"fields": {
			"name": "Village of Newark Police Department",
			"lon": -77.0935436,
			"lat": 43.0461122,
			"type": "Police",
			"address": "100 E Miller St, Newark, NY 14513"
		}
	},
	{
		"model": "twilio_mgr.location",
		"pk": 575,
		"fields": {
			"name": "Village of Owego Police Department",
			"lon": -76.2626208,
			"lat": 42.1050019,
			"type": "Police",
			"address": "90 Temple St, Owego, NY 13827"
		}
	},
	{
		"model": "twilio_mgr.location",
		"pk": 576,
		"fields": {
			"name": "Village of Walden Police Department",
			"lon": -74.1902045,
			"lat": 41.5603506,
			"type": "Police",
			"address": "1 Municipal Square, Walden, NY 12586"
		}
	},
	{
		"model": "twilio_mgr.location",
		"pk": 577,
		"fields": {
			"name": "Village of Wappingers Falls Police Department",
			"lon": -73.9175041,
			"lat": 41.5970183,
			"type": "Police",
			"address": "2628 South Ave, Wappingers Falls, NY 12590"
		}
	},
	{
		"model": "twilio_mgr.location",
		"pk": 578,
		"fields": {
			"name": "Village of Washingtonville Police Department",
			"lon": -74.1643881,
			"lat": 41.4281594,
			"type": "Police",
			"address": "38 E Main St, Washingtonville, NY 10992"
		}
	},
	{
		"model": "twilio_mgr.location",
		"pk": 579,
		"fields": {
			"name": "Village of Westfield Police Department",
			"lon": -79.5760946,
			"lat": 42.3222159,
			"type": "Police",
			"address": "23 Elm St, Westfield, NY 14787"
		}
	},
	{
		"model": "twilio_mgr.location",
		"pk": 580,
		"fields": {
			"name": "Walgreens",
			"lon": -73.6194479,
			"lat": 40.7077759,
			"type": "Pharmacy",
			"address": "393 Front St, Hempstead, NY 11550"
		}
	},
	{
		"model": "twilio_mgr.location",
		"pk": 581,
		"fields": {
			"name": "Walgreens",
			"lon": -73.9788366,
			"lat": 40.6426918,
			"type": "Pharmacy",
			"address": "114 Beverley Rd, Brooklyn, NY 11218"
		}
	},
	{
		"model": "twilio_mgr.location",
		"pk": 582,
		"fields": {
			"name": "Walgreens",
			"lon": -73.9501763,
			"lat": 40.6806162,
			"type": "Pharmacy",
			"address": "1281 Fulton St, Brooklyn, NY 11216"
		}
	},
	{
		"model": "twilio_mgr.location",
		"pk": 583,
		"fields": {
			"name": "Walgreens",
			"lon": -73.5198861,
			"lat": 40.7635824,
			"type": "Pharmacy",
			"address": "210 S Broadway, Hicksville, NY 11801"
		}
	},
	{
		"model": "twilio_mgr.location",
		"pk": 584,
		"fields": {
			"name": "Walgreens",
			"lon": -76.549636,
			"lat": 42.9442418,
			"type": "Pharmacy",
			"address": "150 Grant Ave, Auburn, NY 13021"
		}
	},
	{
		"model": "twilio_mgr.location",
		"pk": 585,
		"fields": {
			"name": "Walgreens",
			"lon": -75.4584147,
			"lat": 43.2090986,
			"type": "Pharmacy",
			"address": "201 S James St, Rome, NY 13440"
		}
	},
	{
		"model": "twilio_mgr.location",
		"pk": 586,
		"fields": {
			"name": "Walgreens",
			"lon": -74.1849997,
			"lat": 42.9594985,
			"type": "Pharmacy",
			"address": "4999 NY-30, Amsterdam, NY 12010"
		}
	},
	{
		"model": "twilio_mgr.location",
		"pk": 587,
		"fields": {
			"name": "Walgreens",
			"lon": -73.904843,
			"lat": 40.878411,
			"type": "Pharmacy",
			"address": "5564 Broadway, Bronx, NY 10463"
		}
	},
	{
		"model": "twilio_mgr.location",
		"pk": 588,
		"fields": {
			"name": "Walgreens",
			"lon": -73.9849812,
			"lat": 40.768062,
			"type": "Pharmacy",
			"address": "353 W 57th St FRNT 2, New York, NY 10019"
		}
	},
	{
		"model": "twilio_mgr.location",
		"pk": 589,
		"fields": {
			"name": "Walgreens",
			"lon": -73.844402,
			"lat": 40.720547,
			"type": "Pharmacy",
			"address": "10716 71st Ave, Forest Hills, NY 11375"
		}
	},
	{
		"model": "twilio_mgr.location",
		"pk": 590,
		"fields": {
			"name": "Walgreens",
			"lon": -73.892395,
			"lat": 40.7491042,
			"type": "Pharmacy",
			"address": "7301 37th Ave, Jackson Heights, NY 11372"
		}
	},
	{
		"model": "twilio_mgr.location",
		"pk": 591,
		"fields": {
			"name": "Walgreens",
			"lon": -73.9904346,
			"lat": 40.7344091,
			"type": "Pharmacy",
			"address": "52 E 14th St, New York, NY 10003"
		}
	},
	{
		"model": "twilio_mgr.location",
		"pk": 592,
		"fields": {
			"name": "Walgreens",
			"lon": -73.8717693,
			"lat": 40.9653324,
			"type": "Pharmacy",
			"address": "1230 Nepperhan Ave, Yonkers, NY 10703"
		}
	},
	{
		"model": "twilio_mgr.location",
		"pk": 593,
		"fields": {
			"name": "Walgreens",
			"lon": -73.7798689,
			"lat": 40.6776609,
			"type": "Pharmacy",
			"address": "12704 Guy R Brewer Blvd, Jamaica, NY 11434"
		}
	},
	{
		"model": "twilio_mgr.location",
		"pk": 594,
		"fields": {
			"name": "Walgreens",
			"lon": -74.1595436,
			"lat": 40.6100161,
			"type": "Pharmacy",
			"address": "1551 Richmond Ave, Staten Island, NY 10314"
		}
	},
	{
		"model": "twilio_mgr.location",
		"pk": 595,
		"fields": {
			"name": "Walgreens",
			"lon": -77.561315,
			"lat": 43.2040895,
			"type": "Pharmacy",
			"address": "2100 East Ridge Road, Irondequoit, NY 14622"
		}
	},
	{
		"model": "twilio_mgr.location",
		"pk": 596,
		"fields": {
			"name": "Walgreens",
			"lon": -78.8367711,
			"lat": 42.9803089,
			"type": "Pharmacy",
			"address": "2601 Sheridan Dr, Tonawanda, NY 14150"
		}
	},
	{
		"model": "twilio_mgr.location",
		"pk": 597,
		"fields": {
			"name": "Walgreens",
			"lon": -73.9807104,
			"lat": 40.7333053,
			"type": "Pharmacy",
			"address": "298 1st Avenue, New York, NY 10009"
		}
	},
	{
		"model": "twilio_mgr.location",
		"pk": 598,
		"fields": {
			"name": "Walgreens",
			"lon": -73.9858495,
			"lat": 41.1547932,
			"type": "Pharmacy",
			"address": "31 W Cavalry Dr, New City, NY 10956"
		}
	},
	{
		"model": "twilio_mgr.location",
		"pk": 599,
		"fields": {
			"name": "Walgreens",
			"lon": -78.873782,
			"lat": 42.9018101,
			"type": "Pharmacy",
			"address": "650 Delaware Ave, Buffalo, NY 14202"
		}
	},
	{
		"model": "twilio_mgr.location",
		"pk": 600,
		"fields": {
			"name": "Walgreens",
			"lon": -73.0347088,
			"lat": 40.8675369,
			"type": "Pharmacy",
			"address": "655 Middle Country Rd, Selden, NY 11784"
		}
	},
	{
		"model": "twilio_mgr.location",
		"pk": 601,
		"fields": {
			"name": "Walgreens",
			"lon": -73.8783385,
			"lat": 40.7393783,
			"type": "Pharmacy",
			"address": "8420 Broadway, Flushing, NY 11373"
		}
	},
	{
		"model": "twilio_mgr.location",
		"pk": 602,
		"fields": {
			"name": "Warren County Sheriff's Office",
			"lon": -73.6993393,
			"lat": 43.3615425,
			"type": "Police",
			"address": "1400 U.S. 9, Lake George, NY 12845"
		}
	},
	{
		"model": "twilio_mgr.location",
		"pk": 603,
		"fields": {
			"name": "Washington County Law Enforcement Center",
			"lon": -73.5895129,
			"lat": 43.2891198,
			"type": "Police",
			"address": "399 Broadway, Hudson Falls, NY 12839"
		}
	},
	{
		"model": "twilio_mgr.location",
		"pk": 604,
		"fields": {
			"name": "Waterville Municipal Building",
			"lon": -75.3767249,
			"lat": 42.930242,
			"type": "Government",
			"address": "122 Barton Avenue, Waterville, NY 13480"
		}
	},
	{
		"model": "twilio_mgr.location",
		"pk": 605,
		"fields": {
			"name": "Watervliet Pharmacy",
			"lon": -73.7055595,
			"lat": 42.731501,
			"type": "Pharmacy",
			"address": "601 19th St, Watervliet, NY 12189"
		}
	},
	{
		"model": "twilio_mgr.location",
		"pk": 606,
		"fields": {
			"name": "Waverly Pharmacy",
			"lon": -76.526595,
			"lat": 42.003459,
			"type": "Pharmacy",
			"address": "443 Cayuta Ave, Waverly, NY 14892"
		}
	},
	{
		"model": "twilio_mgr.location",
		"pk": 607,
		"fields": {
			"name": "Waverly Police Department",
			"lon": -76.5292222,
			"lat": 42.0077533,
			"type": "Police",
			"address": "32 Ithaca St, Waverly, NY 14892"
		}
	},
	{
		"model": "twilio_mgr.location",
		"pk": 608,
		"fields": {
			"name": "Webster Police Department",
			"lon": -77.4580964,
			"lat": 43.2096649,
			"type": "Police",
			"address": "1000 Ridge Rd, Webster, NY 14580"
		}
	},
	{
		"model": "twilio_mgr.location",
		"pk": 609,
		"fields": {
			"name": "Wellness Center Pharmacy",
			"lon": -73.9184176,
			"lat": 40.7588358,
			"type": "Pharmacy",
			"address": "40-13 Broadway, Astoria, NY 11103"
		}
	},
	{
		"model": "twilio_mgr.location",
		"pk": 610,
		"fields": {
			"name": "Wellsville Police Department",
			"lon": -77.9431488,
			"lat": 42.1188043,
			"type": "Police",
			"address": "46 S Main St, Wellsville, NY 14895"
		}
	},
	{
		"model": "twilio_mgr.location",
		"pk": 611,
		"fields": {
			"name": "West Elmira Police Department",
			"lon": -76.8446026,
			"lat": 42.0776369,
			"type": "Police",
			"address": "1255 W Water St, Elmira, NY 14905"
		}
	},
	{
		"model": "twilio_mgr.location",
		"pk": 612,
		"fields": {
			"name": "Westhampton Beach Police Department",
			"lon": -72.646854,
			"lat": 40.8135352,
			"type": "Police",
			"address": "165 Mill Rd, Westhampton Beach, NY 11978"
		}
	},
	{
		"model": "twilio_mgr.location",
		"pk": 613,
		"fields": {
			"name": "White Plains Police Department",
			"lon": -73.771254,
			"lat": 41.029974,
			"type": "Police",
			"address": "77 S Lexington Ave, White Plains, NY 10601"
		}
	},
	{
		"model": "twilio_mgr.location",
		"pk": 614,
		"fields": {
			"name": "Whitehall Police Department",
			"lon": -73.4030571,
			"lat": 43.5535948,
			"type": "Police",
			"address": "57 Skenesborough Dr, Whitehall, NY 12887"
		}
	},
	{
		"model": "twilio_mgr.location",
		"pk": 615,
		"fields": {
			"name": "Windham Police Department",
			"lon": -74.2186559,
			"lat": 42.2925268,
			"type": "Police",
			"address": "371 NY-296, Hensonville, NY 12439"
		}
	},
	{
		"model": "twilio_mgr.location",
		"pk": 616,
		"fields": {
			"name": "Woodstock Police Department",
			"lon": -74.1214726,
			"lat": 42.0405626,
			"type": "Police",
			"address": "76 Tinker St, Woodstock, NY 12498"
		}
	},
	{
		"model": "twilio_mgr.location",
		"pk": 617,
		"fields": {
			"name": "Wurlitzer Family Pharmacy",
			"lon": -78.8611333,
			"lat": 43.037139,
			"type": "Pharmacy",
			"address": "521 Division St, North Tonawanda, NY 14120"
		}
	},
	{
		"model": "twilio_mgr.location",
		"pk": 618,
		"fields": {
			"name": "Wyoming County Sheriff's Office",
			"lon": -78.1326259,
			"lat": 42.7437446,
			"type": "Police",
			"address": "151 N Main St, Warsaw, NY 14569"
		}
	},
	{
		"model": "twilio_mgr.location",
		"pk": 619,
		"fields": {
			"name": "Xtra Care Pharmacy",
			"lon": -73.58092,
			"lat": 40.6554268,
			"type": "Pharmacy",
			"address": "75 S Main St, Freeport, NY 11520"
		}
	},
	{
		"model": "twilio_mgr.location",
		"pk": 620,
		"fields": {
			"name": "Yorktown Police Department - Robe",
			"lon": -73.7948975,
			"lat": 41.2818064,
			"type": "Police",
			"address": "2281 Crompond Rd, Yorktown Heights, NY 10598"
		}
	},
	{
		"model": "twilio_mgr.location",
		"pk": 621,
		"fields": {
			"name": "Young's Pharmacy & General Store",
			"lon": -73.5539605,
			"lat": 42.6342331,
			"type": "Pharmacy",
			"address": "1636 Burden Lake Rd, Averill Park, NY 12018"
		}
	}
]